[
	{
		"country": "FR",
		"ville": "Peyrat-le-Château",
		"lat": "45.81578",
		"lng": "1.77233"
	},
	{
		"country": "FR",
		"ville": "Blaye",
		"lat": "45.13333",
		"lng": "-0.66667"
	},
	{
		"country": "FR",
		"ville": "Zuydcoote",
		"lat": "51.06096",
		"lng": "2.49338"
	},
	{
		"country": "FR",
		"ville": "Zutkerque",
		"lat": "50.85303",
		"lng": "2.06818"
	},
	{
		"country": "FR",
		"ville": "Zonza",
		"lat": "41.74813",
		"lng": "9.17102"
	},
	{
		"country": "FR",
		"ville": "Zimmersheim",
		"lat": "47.72021",
		"lng": "7.38819"
	},
	{
		"country": "FR",
		"ville": "Zillisheim",
		"lat": "47.69562",
		"lng": "7.29516"
	},
	{
		"country": "FR",
		"ville": "Zegerscappel",
		"lat": "50.88333",
		"lng": "2.4"
	},
	{
		"country": "FR",
		"ville": "Yzeures-sur-Creuse",
		"lat": "46.78609",
		"lng": "0.87166"
	},
	{
		"country": "FR",
		"ville": "Yzeure",
		"lat": "46.56438",
		"lng": "3.35495"
	},
	{
		"country": "FR",
		"ville": "Yzernay",
		"lat": "47.02229",
		"lng": "-0.70295"
	},
	{
		"country": "FR",
		"ville": "Yvré-le-Pôlin",
		"lat": "47.82235",
		"lng": "0.15581"
	},
	{
		"country": "FR",
		"ville": "Yvrac",
		"lat": "44.87786",
		"lng": "-0.4587"
	},
	{
		"country": "FR",
		"ville": "Yvignac-la-Tour",
		"lat": "48.35",
		"lng": "-2.18333"
	},
	{
		"country": "FR",
		"ville": "Yvetot",
		"lat": "49.61744",
		"lng": "0.75814"
	},
	{
		"country": "FR",
		"ville": "Yves",
		"lat": "46.01922",
		"lng": "-1.04833"
	},
	{
		"country": "FR",
		"ville": "Ytrac",
		"lat": "44.91343",
		"lng": "2.36295"
	},
	{
		"country": "FR",
		"ville": "Yssingeaux",
		"lat": "45.13333",
		"lng": "4.11667"
	},
	{
		"country": "FR",
		"ville": "Yport",
		"lat": "49.73716",
		"lng": "0.31537"
	},
	{
		"country": "FR",
		"ville": "Youx",
		"lat": "46.14441",
		"lng": "2.80004"
	},
	{
		"country": "FR",
		"ville": "Ymare",
		"lat": "49.3506",
		"lng": "1.17938"
	},
	{
		"country": "FR",
		"ville": "Ygos-Saint-Saturnin",
		"lat": "43.97651",
		"lng": "-0.7378"
	},
	{
		"country": "FR",
		"ville": "Yffiniac",
		"lat": "48.48428",
		"lng": "-2.67647"
	},
	{
		"country": "FR",
		"ville": "Yèvres",
		"lat": "48.21078",
		"lng": "1.18717"
	},
	{
		"country": "FR",
		"ville": "Yerville",
		"lat": "49.6672",
		"lng": "0.89594"
	},
	{
		"country": "FR",
		"ville": "Yerres",
		"lat": "48.71785",
		"lng": "2.49338"
	},
	{
		"country": "FR",
		"ville": "Yenne",
		"lat": "45.7042",
		"lng": "5.75795"
	},
	{
		"country": "FR",
		"ville": "Yébleron",
		"lat": "49.63333",
		"lng": "0.53746"
	},
	{
		"country": "FR",
		"ville": "Ydes",
		"lat": "45.33333",
		"lng": "2.46667"
	},
	{
		"country": "FR",
		"ville": "Ychoux",
		"lat": "44.32869",
		"lng": "-0.95179"
	},
	{
		"country": "FR",
		"ville": "Yainville",
		"lat": "49.45371",
		"lng": "0.8292"
	},
	{
		"country": "FR",
		"ville": "Xonrupt-Longemer",
		"lat": "48.08223",
		"lng": "6.92944"
	},
	{
		"country": "FR",
		"ville": "Xertigny",
		"lat": "48.04394",
		"lng": "6.40836"
	},
	{
		"country": "FR",
		"ville": "Woustviller",
		"lat": "49.07636",
		"lng": "7.00487"
	},
	{
		"country": "FR",
		"ville": "Wormhout",
		"lat": "50.88129",
		"lng": "2.46901"
	},
	{
		"country": "FR",
		"ville": "Wolfisheim",
		"lat": "48.58723",
		"lng": "7.66708"
	},
	{
		"country": "FR",
		"ville": "Wolfgantzen",
		"lat": "48.02805",
		"lng": "7.5004"
	},
	{
		"country": "FR",
		"ville": "Woippy",
		"lat": "49.15111",
		"lng": "6.15132"
	},
	{
		"country": "FR",
		"ville": "Woincourt",
		"lat": "50.0663",
		"lng": "1.53676"
	},
	{
		"country": "FR",
		"ville": "Woerth",
		"lat": "48.93953",
		"lng": "7.74279"
	},
	{
		"country": "FR",
		"ville": "Wizernes",
		"lat": "50.7117",
		"lng": "2.24316"
	},
	{
		"country": "FR",
		"ville": "Wittisheim",
		"lat": "48.26451",
		"lng": "7.58683"
	},
	{
		"country": "FR",
		"ville": "Wittenheim",
		"lat": "47.8078",
		"lng": "7.33702"
	},
	{
		"country": "FR",
		"ville": "Wittelsheim",
		"lat": "47.80947",
		"lng": "7.24154"
	},
	{
		"country": "FR",
		"ville": "Witry-lès-Reims",
		"lat": "49.29162",
		"lng": "4.11921"
	},
	{
		"country": "FR",
		"ville": "Wissous",
		"lat": "48.73352",
		"lng": "2.32338"
	},
	{
		"country": "FR",
		"ville": "Wissembourg",
		"lat": "49.03708",
		"lng": "7.94548"
	},
	{
		"country": "FR",
		"ville": "Wissant",
		"lat": "50.8853",
		"lng": "1.66263"
	},
	{
		"country": "FR",
		"ville": "Wisches",
		"lat": "48.50881",
		"lng": "7.26814"
	},
	{
		"country": "FR",
		"ville": "Wintzenheim",
		"lat": "48.07269",
		"lng": "7.29072"
	},
	{
		"country": "FR",
		"ville": "Winnezeele",
		"lat": "50.841",
		"lng": "2.55118"
	},
	{
		"country": "FR",
		"ville": "Wingles",
		"lat": "50.49382",
		"lng": "2.855"
	},
	{
		"country": "FR",
		"ville": "Wingersheim",
		"lat": "48.72149",
		"lng": "7.63464"
	},
	{
		"country": "FR",
		"ville": "Wingen-sur-Moder",
		"lat": "48.919",
		"lng": "7.37955"
	},
	{
		"country": "FR",
		"ville": "Wimmenau",
		"lat": "48.91217",
		"lng": "7.42189"
	},
	{
		"country": "FR",
		"ville": "Wimille",
		"lat": "50.76418",
		"lng": "1.63137"
	},
	{
		"country": "FR",
		"ville": "Wimereux",
		"lat": "50.76963",
		"lng": "1.61139"
	},
	{
		"country": "FR",
		"ville": "Willerwald",
		"lat": "49.02481",
		"lng": "7.03726"
	},
	{
		"country": "FR",
		"ville": "Willems",
		"lat": "50.63206",
		"lng": "3.2384"
	},
	{
		"country": "FR",
		"ville": "Wihr-au-Val",
		"lat": "48.05312",
		"lng": "7.20489"
	},
	{
		"country": "FR",
		"ville": "Wignehies",
		"lat": "50.0155",
		"lng": "4.00913"
	},
	{
		"country": "FR",
		"ville": "Wiesviller",
		"lat": "49.08095",
		"lng": "7.16415"
	},
	{
		"country": "FR",
		"ville": "Widensolen",
		"lat": "48.06289",
		"lng": "7.48057"
	},
	{
		"country": "FR",
		"ville": "Weyersheim",
		"lat": "48.71622",
		"lng": "7.80127"
	},
	{
		"country": "FR",
		"ville": "Wettolsheim",
		"lat": "48.05755",
		"lng": "7.29844"
	},
	{
		"country": "FR",
		"ville": "Westhoffen",
		"lat": "48.60352",
		"lng": "7.44289"
	},
	{
		"country": "FR",
		"ville": "Wervicq-Sud",
		"lat": "50.7745",
		"lng": "3.04207"
	},
	{
		"country": "FR",
		"ville": "Weitbruch",
		"lat": "48.75455",
		"lng": "7.77935"
	},
	{
		"country": "FR",
		"ville": "Waziers",
		"lat": "50.38717",
		"lng": "3.1149"
	},
	{
		"country": "FR",
		"ville": "Wavrin",
		"lat": "50.57386",
		"lng": "2.9363"
	},
	{
		"country": "FR",
		"ville": "Wavrechain-sous-Denain",
		"lat": "50.33224",
		"lng": "3.41252"
	},
	{
		"country": "FR",
		"ville": "Wavignies",
		"lat": "49.54748",
		"lng": "2.36032"
	},
	{
		"country": "FR",
		"ville": "Wattwiller",
		"lat": "47.83649",
		"lng": "7.17785"
	},
	{
		"country": "FR",
		"ville": "Wattrelos",
		"lat": "50.70118",
		"lng": "3.21812"
	},
	{
		"country": "FR",
		"ville": "Wattignies",
		"lat": "50.58639",
		"lng": "3.04394"
	},
	{
		"country": "FR",
		"ville": "Watten",
		"lat": "50.83685",
		"lng": "2.21346"
	},
	{
		"country": "FR",
		"ville": "Wassy",
		"lat": "48.49811",
		"lng": "4.94775"
	},
	{
		"country": "FR",
		"ville": "Wassigny",
		"lat": "50.01334",
		"lng": "3.59988"
	},
	{
		"country": "FR",
		"ville": "Wasselonne",
		"lat": "48.63779",
		"lng": "7.44506"
	},
	{
		"country": "FR",
		"ville": "Wasquehal",
		"lat": "50.67043",
		"lng": "3.13382"
	},
	{
		"country": "FR",
		"ville": "Warmeriville",
		"lat": "49.35227",
		"lng": "4.21882"
	},
	{
		"country": "FR",
		"ville": "Warluis",
		"lat": "49.38874",
		"lng": "2.1422"
	},
	{
		"country": "FR",
		"ville": "Warhem",
		"lat": "50.97592",
		"lng": "2.49303"
	},
	{
		"country": "FR",
		"ville": "Wargnies-le-Grand",
		"lat": "50.30751",
		"lng": "3.66038"
	},
	{
		"country": "FR",
		"ville": "Wardrecques",
		"lat": "50.71108",
		"lng": "2.34483"
	},
	{
		"country": "FR",
		"ville": "Warcq",
		"lat": "49.77517",
		"lng": "4.68175"
	},
	{
		"country": "FR",
		"ville": "Wangenbourg-Engenthal",
		"lat": "48.62805",
		"lng": "7.30471"
	},
	{
		"country": "FR",
		"ville": "Wandignies-Hamage",
		"lat": "50.39609",
		"lng": "3.3145"
	},
	{
		"country": "FR",
		"ville": "Wambrechies",
		"lat": "50.68276",
		"lng": "3.04784"
	},
	{
		"country": "FR",
		"ville": "Walscheid",
		"lat": "48.65308",
		"lng": "7.14998"
	},
	{
		"country": "FR",
		"ville": "Wallers",
		"lat": "50.37432",
		"lng": "3.39188"
	},
	{
		"country": "FR",
		"ville": "Walincourt-Selvigny",
		"lat": "50.06667",
		"lng": "3.33333"
	},
	{
		"country": "FR",
		"ville": "Waldighofen",
		"lat": "47.55126",
		"lng": "7.31743"
	},
	{
		"country": "FR",
		"ville": "Walbourg",
		"lat": "48.88628",
		"lng": "7.78828"
	},
	{
		"country": "FR",
		"ville": "Wailly",
		"lat": "50.52287",
		"lng": "2.06792"
	},
	{
		"country": "FR",
		"ville": "Wahagnies",
		"lat": "50.48665",
		"lng": "3.03448"
	},
	{
		"country": "FR",
		"ville": "Vulaines-sur-Seine",
		"lat": "48.43186",
		"lng": "2.76476"
	},
	{
		"country": "FR",
		"ville": "Vue",
		"lat": "47.19953",
		"lng": "-1.8775"
	},
	{
		"country": "FR",
		"ville": "Vrigne-aux-Bois",
		"lat": "49.73716",
		"lng": "4.85567"
	},
	{
		"country": "FR",
		"ville": "Vred",
		"lat": "50.39455",
		"lng": "3.23029"
	},
	{
		"country": "FR",
		"ville": "Voves",
		"lat": "48.27138",
		"lng": "1.62583"
	},
	{
		"country": "FR",
		"ville": "Vouzon",
		"lat": "47.64515",
		"lng": "2.05609"
	},
	{
		"country": "FR",
		"ville": "Vouziers",
		"lat": "49.4",
		"lng": "4.7"
	},
	{
		"country": "FR",
		"ville": "Vouvray",
		"lat": "47.41087",
		"lng": "0.79892"
	},
	{
		"country": "FR",
		"ville": "Voutezac",
		"lat": "45.29246",
		"lng": "1.43714"
	},
	{
		"country": "FR",
		"ville": "Vourles",
		"lat": "45.65674",
		"lng": "4.77157"
	},
	{
		"country": "FR",
		"ville": "Vourey",
		"lat": "45.31958",
		"lng": "5.52028"
	},
	{
		"country": "FR",
		"ville": "Vouneuil-sur-Vienne",
		"lat": "46.71793",
		"lng": "0.53936"
	},
	{
		"country": "FR",
		"ville": "Vouneuil-sous-Biard",
		"lat": "46.57387",
		"lng": "0.26988"
	},
	{
		"country": "FR",
		"ville": "Voulx",
		"lat": "48.28204",
		"lng": "2.96747"
	},
	{
		"country": "FR",
		"ville": "Voulangis",
		"lat": "48.85252",
		"lng": "2.89558"
	},
	{
		"country": "FR",
		"ville": "Voujeaucourt",
		"lat": "47.47513",
		"lng": "6.77431"
	},
	{
		"country": "FR",
		"ville": "Vouillé",
		"lat": "46.64011",
		"lng": "0.16778"
	},
	{
		"country": "FR",
		"ville": "Vouillé",
		"lat": "46.3155",
		"lng": "-0.36845"
	},
	{
		"country": "FR",
		"ville": "Vougy",
		"lat": "46.1018",
		"lng": "4.11973"
	},
	{
		"country": "FR",
		"ville": "Vougy",
		"lat": "46.06676",
		"lng": "6.49419"
	},
	{
		"country": "FR",
		"ville": "Vorey",
		"lat": "45.18357",
		"lng": "3.90992"
	},
	{
		"country": "FR",
		"ville": "Voreppe",
		"lat": "45.29476",
		"lng": "5.63324"
	},
	{
		"country": "FR",
		"ville": "Vonnas",
		"lat": "46.21867",
		"lng": "4.99161"
	},
	{
		"country": "FR",
		"ville": "Volx",
		"lat": "43.87383",
		"lng": "5.8413"
	},
	{
		"country": "FR",
		"ville": "Volvic",
		"lat": "45.87196",
		"lng": "3.03832"
	},
	{
		"country": "FR",
		"ville": "Volstroff",
		"lat": "49.31135",
		"lng": "6.25976"
	},
	{
		"country": "FR",
		"ville": "Volonne",
		"lat": "44.11039",
		"lng": "6.01424"
	},
	{
		"country": "FR",
		"ville": "Volmerange-les-Mines",
		"lat": "49.44326",
		"lng": "6.08062"
	},
	{
		"country": "FR",
		"ville": "Voisins-le-Bretonneux",
		"lat": "48.75793",
		"lng": "2.05137"
	},
	{
		"country": "FR",
		"ville": "Voisenon",
		"lat": "48.5717",
		"lng": "2.6648"
	},
	{
		"country": "FR",
		"ville": "Voiron",
		"lat": "45.36395",
		"lng": "5.59209"
	},
	{
		"country": "FR",
		"ville": "Void-Vacon",
		"lat": "48.68333",
		"lng": "5.61667"
	},
	{
		"country": "FR",
		"ville": "Voglans",
		"lat": "45.6339",
		"lng": "5.90227"
	},
	{
		"country": "FR",
		"ville": "Volgelsheim",
		"lat": "48.01462",
		"lng": "7.55456"
	},
	{
		"country": "FR",
		"ville": "Vœuil-et-Giget",
		"lat": "45.58333",
		"lng": "0.15"
	},
	{
		"country": "FR",
		"ville": "Vizille",
		"lat": "45.07819",
		"lng": "5.77074"
	},
	{
		"country": "FR",
		"ville": "Vix",
		"lat": "46.36456",
		"lng": "-0.86072"
	},
	{
		"country": "FR",
		"ville": "Vivy",
		"lat": "47.32648",
		"lng": "-0.05531"
	},
	{
		"country": "FR",
		"ville": "Vivonne",
		"lat": "46.42953",
		"lng": "0.26443"
	},
	{
		"country": "FR",
		"ville": "Viviez",
		"lat": "44.55678",
		"lng": "2.21649"
	},
	{
		"country": "FR",
		"ville": "Viviers-lès-Montagnes",
		"lat": "43.55474",
		"lng": "2.17672"
	},
	{
		"country": "FR",
		"ville": "Viviers",
		"lat": "44.48515",
		"lng": "4.68721"
	},
	{
		"country": "FR",
		"ville": "Vivier-au-Court",
		"lat": "49.73326",
		"lng": "4.82939"
	},
	{
		"country": "FR",
		"ville": "Viuz-la-Chiésaz",
		"lat": "45.81084",
		"lng": "6.06207"
	},
	{
		"country": "FR",
		"ville": "Viuz-en-Sallaz",
		"lat": "46.14556",
		"lng": "6.40986"
	},
	{
		"country": "FR",
		"ville": "Vittel",
		"lat": "48.20085",
		"lng": "5.94843"
	},
	{
		"country": "FR",
		"ville": "Vitteaux",
		"lat": "47.39732",
		"lng": "4.5419"
	},
	{
		"country": "FR",
		"ville": "Vitry-sur-Seine",
		"lat": "48.78716",
		"lng": "2.40332"
	},
	{
		"country": "FR",
		"ville": "Vitry-sur-Orne",
		"lat": "49.26595",
		"lng": "6.11074"
	},
	{
		"country": "FR",
		"ville": "Vitry-le-François",
		"lat": "48.73333",
		"lng": "4.58333"
	},
	{
		"country": "FR",
		"ville": "Vitry-en-Artois",
		"lat": "50.3266",
		"lng": "2.97999"
	},
	{
		"country": "FR",
		"ville": "Vitry-aux-Loges",
		"lat": "47.93333",
		"lng": "2.26667"
	},
	{
		"country": "FR",
		"ville": "Vitrolles",
		"lat": "43.46",
		"lng": "5.24861"
	},
	{
		"country": "FR",
		"ville": "Vitré",
		"lat": "48.11776",
		"lng": "-1.20577"
	},
	{
		"country": "FR",
		"ville": "Visan",
		"lat": "44.3141",
		"lng": "4.95202"
	},
	{
		"country": "FR",
		"ville": "Viry-Noureuil",
		"lat": "49.63214",
		"lng": "3.24322"
	},
	{
		"country": "FR",
		"ville": "Viry-Châtillon",
		"lat": "48.67211",
		"lng": "2.39318"
	},
	{
		"country": "FR",
		"ville": "Viry",
		"lat": "46.11717",
		"lng": "6.03717"
	},
	{
		"country": "FR",
		"ville": "Viroflay",
		"lat": "48.80078",
		"lng": "2.16181"
	},
	{
		"country": "FR",
		"ville": "Viriville",
		"lat": "45.31737",
		"lng": "5.20373"
	},
	{
		"country": "FR",
		"ville": "Virieu-le-Grand",
		"lat": "45.84851",
		"lng": "5.64979"
	},
	{
		"country": "FR",
		"ville": "Virieu",
		"lat": "45.48399",
		"lng": "5.47501"
	},
	{
		"country": "FR",
		"ville": "Viriat",
		"lat": "46.25484",
		"lng": "5.21567"
	},
	{
		"country": "FR",
		"ville": "Virey-le-Grand",
		"lat": "46.83333",
		"lng": "4.86667"
	},
	{
		"country": "FR",
		"ville": "Vireux-Wallerand",
		"lat": "50.08196",
		"lng": "4.73017"
	},
	{
		"country": "FR",
		"ville": "Vireux-Molhain",
		"lat": "50.07874",
		"lng": "4.72426"
	},
	{
		"country": "FR",
		"ville": "Vire",
		"lat": "48.83333",
		"lng": "-0.88333"
	},
	{
		"country": "FR",
		"ville": "Virazeil",
		"lat": "44.50705",
		"lng": "0.22177"
	},
	{
		"country": "FR",
		"ville": "Vion",
		"lat": "47.81923",
		"lng": "-0.23916"
	},
	{
		"country": "FR",
		"ville": "Violès",
		"lat": "44.16146",
		"lng": "4.95329"
	},
	{
		"country": "FR",
		"ville": "Violay",
		"lat": "45.85283",
		"lng": "4.35724"
	},
	{
		"country": "FR",
		"ville": "Violaines",
		"lat": "50.5416",
		"lng": "2.7886"
	},
	{
		"country": "FR",
		"ville": "Vinsobres",
		"lat": "44.33315",
		"lng": "5.06208"
	},
	{
		"country": "FR",
		"ville": "Vinon-sur-Verdon",
		"lat": "43.72451",
		"lng": "5.81081"
	},
	{
		"country": "FR",
		"ville": "Vinneuf",
		"lat": "48.34795",
		"lng": "3.14013"
	},
	{
		"country": "FR",
		"ville": "Vineuil-Saint-Firmin",
		"lat": "49.20024",
		"lng": "2.49567"
	},
	{
		"country": "FR",
		"ville": "Vineuil",
		"lat": "47.5838",
		"lng": "1.37601"
	},
	{
		"country": "FR",
		"ville": "Vineuil",
		"lat": "46.90038",
		"lng": "1.63543"
	},
	{
		"country": "FR",
		"ville": "Vincey",
		"lat": "48.33749",
		"lng": "6.33134"
	},
	{
		"country": "FR",
		"ville": "Vincennes",
		"lat": "48.8486",
		"lng": "2.43769"
	},
	{
		"country": "FR",
		"ville": "Vinça",
		"lat": "42.64486",
		"lng": "2.5283"
	},
	{
		"country": "FR",
		"ville": "Vinay",
		"lat": "45.21075",
		"lng": "5.40806"
	},
	{
		"country": "FR",
		"ville": "Vinassan",
		"lat": "43.20443",
		"lng": "3.07463"
	},
	{
		"country": "FR",
		"ville": "Vimy",
		"lat": "50.37243",
		"lng": "2.81034"
	},
	{
		"country": "FR",
		"ville": "Vimoutiers",
		"lat": "48.92772",
		"lng": "0.19835"
	},
	{
		"country": "FR",
		"ville": "Vimory",
		"lat": "47.94786",
		"lng": "2.68701"
	},
	{
		"country": "FR",
		"ville": "Vimines",
		"lat": "45.54741",
		"lng": "5.86493"
	},
	{
		"country": "FR",
		"ville": "Villiers-sur-Orge",
		"lat": "48.65953",
		"lng": "2.30002"
	},
	{
		"country": "FR",
		"ville": "Villiers-sur-Morin",
		"lat": "48.86099",
		"lng": "2.87773"
	},
	{
		"country": "FR",
		"ville": "Villiers-sur-Marne",
		"lat": "48.831",
		"lng": "2.54844"
	},
	{
		"country": "FR",
		"ville": "Villiers-sur-Loir",
		"lat": "47.80507",
		"lng": "0.99774"
	},
	{
		"country": "FR",
		"ville": "Villiers-Saint-Georges",
		"lat": "48.64998",
		"lng": "3.40754"
	},
	{
		"country": "FR",
		"ville": "Villiers-Saint-Fréderic",
		"lat": "48.81667",
		"lng": "1.88333"
	},
	{
		"country": "FR",
		"ville": "Villiers-le-Morhier",
		"lat": "48.62018",
		"lng": "1.56349"
	},
	{
		"country": "FR",
		"ville": "Villiers-le-Bel",
		"lat": "49.00875",
		"lng": "2.39819"
	},
	{
		"country": "FR",
		"ville": "Villiers-le-Bâcle",
		"lat": "48.72819",
		"lng": "2.11925"
	},
	{
		"country": "FR",
		"ville": "Villiers-en-Plaine",
		"lat": "46.40895",
		"lng": "-0.53756"
	},
	{
		"country": "FR",
		"ville": "Villiers-en-Lieu",
		"lat": "48.66785",
		"lng": "4.89755"
	},
	{
		"country": "FR",
		"ville": "Villié-Morgon",
		"lat": "46.16229",
		"lng": "4.68056"
	},
	{
		"country": "FR",
		"ville": "Villey-Saint-Étienne",
		"lat": "48.73136",
		"lng": "5.97841"
	},
	{
		"country": "FR",
		"ville": "Villevocance",
		"lat": "45.22659",
		"lng": "4.59103"
	},
	{
		"country": "FR",
		"ville": "Villevieille",
		"lat": "43.78795",
		"lng": "4.09756"
	},
	{
		"country": "FR",
		"ville": "Villeveyrac",
		"lat": "43.50095",
		"lng": "3.60723"
	},
	{
		"country": "FR",
		"ville": "Villevêque",
		"lat": "47.56095",
		"lng": "-0.42383"
	},
	{
		"country": "FR",
		"ville": "Villevaudé",
		"lat": "48.91751",
		"lng": "2.65228"
	},
	{
		"country": "FR",
		"ville": "Villeurbanne",
		"lat": "45.76667",
		"lng": "4.88333"
	},
	{
		"country": "FR",
		"ville": "Villette-de-Vienne",
		"lat": "45.58908",
		"lng": "4.91398"
	},
	{
		"country": "FR",
		"ville": "Villetelle",
		"lat": "43.73105",
		"lng": "4.13658"
	},
	{
		"country": "FR",
		"ville": "Villetaneuse",
		"lat": "48.95833",
		"lng": "2.34167"
	},
	{
		"country": "FR",
		"ville": "Villes-sur-Auzon",
		"lat": "44.05669",
		"lng": "5.2343"
	},
	{
		"country": "FR",
		"ville": "Ville-sous-la-Ferté",
		"lat": "48.1206",
		"lng": "4.78957"
	},
	{
		"country": "FR",
		"ville": "Ville-sous-Anjou",
		"lat": "45.37194",
		"lng": "4.85106"
	},
	{
		"country": "FR",
		"ville": "Villerupt",
		"lat": "49.46737",
		"lng": "5.93285"
	},
	{
		"country": "FR",
		"ville": "Villers-sur-Mer",
		"lat": "49.32264",
		"lng": "0.00027"
	},
	{
		"country": "FR",
		"ville": "Villers-sur-Coudun",
		"lat": "49.48308",
		"lng": "2.80457"
	},
	{
		"country": "FR",
		"ville": "Villers-sous-Saint-Leu",
		"lat": "49.21235",
		"lng": "2.39485"
	},
	{
		"country": "FR",
		"ville": "Villers-Semeuse",
		"lat": "49.74201",
		"lng": "4.74697"
	},
	{
		"country": "FR",
		"ville": "Villers-Saint-Paul",
		"lat": "49.28885",
		"lng": "2.48968"
	},
	{
		"country": "FR",
		"ville": "Villers-Pol",
		"lat": "50.2846",
		"lng": "3.61449"
	},
	{
		"country": "FR",
		"ville": "Villers-Outréaux",
		"lat": "50.0359",
		"lng": "3.29947"
	},
	{
		"country": "FR",
		"ville": "Villers-lès-Nancy",
		"lat": "48.67103",
		"lng": "6.15083"
	},
	{
		"country": "FR",
		"ville": "Villers-le-Lac",
		"lat": "47.06319",
		"lng": "6.66699"
	},
	{
		"country": "FR",
		"ville": "Villers-la-Montagne",
		"lat": "49.47108",
		"lng": "5.82412"
	},
	{
		"country": "FR",
		"ville": "Villersexel",
		"lat": "47.5507",
		"lng": "6.43273"
	},
	{
		"country": "FR",
		"ville": "Villers-en-Cauchies",
		"lat": "50.22574",
		"lng": "3.40362"
	},
	{
		"country": "FR",
		"ville": "Villers-Écalles",
		"lat": "49.54136",
		"lng": "0.91942"
	},
	{
		"country": "FR",
		"ville": "Villers-Cotterêts",
		"lat": "49.25311",
		"lng": "3.09003"
	},
	{
		"country": "FR",
		"ville": "Villers-Bretonneux",
		"lat": "49.86844",
		"lng": "2.51688"
	},
	{
		"country": "FR",
		"ville": "Villers-Bocage",
		"lat": "49.9981",
		"lng": "2.31683"
	},
	{
		"country": "FR",
		"ville": "Villers-Bocage",
		"lat": "49.0796",
		"lng": "-0.65412"
	},
	{
		"country": "FR",
		"ville": "Villereversure",
		"lat": "46.18509",
		"lng": "5.38269"
	},
	{
		"country": "FR",
		"ville": "Villerest",
		"lat": "46",
		"lng": "4.03333"
	},
	{
		"country": "FR",
		"ville": "Villeréal",
		"lat": "44.63631",
		"lng": "0.74326"
	},
	{
		"country": "FR",
		"ville": "Villepreux",
		"lat": "48.82815",
		"lng": "1.9976"
	},
	{
		"country": "FR",
		"ville": "Villepinte",
		"lat": "48.96203",
		"lng": "2.53253"
	},
	{
		"country": "FR",
		"ville": "Villepinte",
		"lat": "43.28213",
		"lng": "2.0876"
	},
	{
		"country": "FR",
		"ville": "Villeparisis",
		"lat": "48.94208",
		"lng": "2.61463"
	},
	{
		"country": "FR",
		"ville": "Villenoy",
		"lat": "48.94112",
		"lng": "2.8602"
	},
	{
		"country": "FR",
		"ville": "Villenouvelle",
		"lat": "43.43581",
		"lng": "1.66279"
	},
	{
		"country": "FR",
		"ville": "Villennes-sur-Seine",
		"lat": "48.94137",
		"lng": "1.99137"
	},
	{
		"country": "FR",
		"ville": "Villeneuve-Tolosane",
		"lat": "43.52316",
		"lng": "1.34102"
	},
	{
		"country": "FR",
		"ville": "Villeneuve-sur-Yonne",
		"lat": "48.08247",
		"lng": "3.29688"
	},
	{
		"country": "FR",
		"ville": "Villeneuve-sur-Lot",
		"lat": "44.40854",
		"lng": "0.70415"
	},
	{
		"country": "FR",
		"ville": "Villeneuve-sur-Bellot",
		"lat": "48.86203",
		"lng": "3.34143"
	},
	{
		"country": "FR",
		"ville": "Villeneuve-Saint-Germain",
		"lat": "49.37976",
		"lng": "3.35952"
	},
	{
		"country": "FR",
		"ville": "Villeneuve-Saint-Georges",
		"lat": "48.73219",
		"lng": "2.44925"
	},
	{
		"country": "FR",
		"ville": "Villeneuve-Loubet",
		"lat": "43.66663",
		"lng": "7.1204"
	},
	{
		"country": "FR",
		"ville": "Villeneuve-les-Sablons",
		"lat": "49.23753",
		"lng": "2.07782"
	},
	{
		"country": "FR",
		"ville": "Villeneuve-lès-Maguelone",
		"lat": "43.53333",
		"lng": "3.86667"
	},
	{
		"country": "FR",
		"ville": "Villeneuve-lès-Bouloc",
		"lat": "43.76769",
		"lng": "1.42278"
	},
	{
		"country": "FR",
		"ville": "Villeneuve-lès-Béziers",
		"lat": "43.31517",
		"lng": "3.28059"
	},
	{
		"country": "FR",
		"ville": "Villeneuve-lès-Avignon",
		"lat": "43.9684",
		"lng": "4.7963"
	},
	{
		"country": "FR",
		"ville": "Villeneuve-le-Roi",
		"lat": "48.73684",
		"lng": "2.40081"
	},
	{
		"country": "FR",
		"ville": "Villeneuve-le-Comte",
		"lat": "48.81413",
		"lng": "2.82953"
	},
	{
		"country": "FR",
		"ville": "Villeneuve-la-Rivière",
		"lat": "42.69366",
		"lng": "2.80294"
	},
	{
		"country": "FR",
		"ville": "Villeneuve-la-Guyard",
		"lat": "48.34093",
		"lng": "3.06176"
	},
	{
		"country": "FR",
		"ville": "Villeneuve-la-Garenne",
		"lat": "48.93935",
		"lng": "2.31478"
	},
	{
		"country": "FR",
		"ville": "Villeneuve-la-Comptal",
		"lat": "43.28833",
		"lng": "1.91773"
	},
	{
		"country": "FR",
		"ville": "Villeneuve-d'Olmes",
		"lat": "42.9061",
		"lng": "1.81937"
	},
	{
		"country": "FR",
		"ville": "Villeneuve-de-Rivière",
		"lat": "43.12829",
		"lng": "0.66351"
	},
	{
		"country": "FR",
		"ville": "Villeneuve-de-Marsan",
		"lat": "43.88906",
		"lng": "-0.30926"
	},
	{
		"country": "FR",
		"ville": "Villeneuve-de-la-Raho",
		"lat": "42.63596",
		"lng": "2.91651"
	},
	{
		"country": "FR",
		"ville": "Villeneuve-de-Berg",
		"lat": "44.55732",
		"lng": "4.50265"
	},
	{
		"country": "FR",
		"ville": "Villeneuve",
		"lat": "44.43333",
		"lng": "2.03333"
	},
	{
		"country": "FR",
		"ville": "Villeneuve",
		"lat": "46.02141",
		"lng": "4.83611"
	},
	{
		"country": "FR",
		"ville": "Villeneuve",
		"lat": "44.94488",
		"lng": "6.56545"
	},
	{
		"country": "FR",
		"ville": "Villeneuve",
		"lat": "43.89431",
		"lng": "5.86184"
	},
	{
		"country": "FR",
		"ville": "Villenave-d'Ornon",
		"lat": "44.77327",
		"lng": "-0.5442"
	},
	{
		"country": "FR",
		"ville": "Villenauxe-la-Grande",
		"lat": "48.58333",
		"lng": "3.55"
	},
	{
		"country": "FR",
		"ville": "Villemur-sur-Tarn",
		"lat": "43.86708",
		"lng": "1.50281"
	},
	{
		"country": "FR",
		"ville": "Villemoustaussou",
		"lat": "43.25186",
		"lng": "2.36552"
	},
	{
		"country": "FR",

		"ville": "Villemomble",
		"lat": "48.88333",
		"lng": "2.5"
	},
	{
		"country": "FR",
		"ville": "Villemolaque",
		"lat": "42.58815",
		"lng": "2.8389"
	},
	{
		"country": "FR",
		"ville": "Villemoisson-sur-Orge",
		"lat": "48.66632",
		"lng": "2.33657"
	},
	{
		"country": "FR",
		"ville": "Villemoirieu",
		"lat": "45.71617",
		"lng": "5.22771"
	},
	{
		"country": "FR",
		"ville": "Villemeux-sur-Eure",
		"lat": "48.67259",
		"lng": "1.4647"
	},
	{
		"country": "FR",
		"ville": "Villemandeur",
		"lat": "47.98701",
		"lng": "2.71802"
	},
	{
		"country": "FR",
		"ville": "Vilallonga dels Monts",
		"lat": "42.52557",
		"lng": "2.90434"
	},
	{
		"country": "FR",
		"ville": "Villelongue-de-la-Salanque",
		"lat": "42.72637",
		"lng": "2.9824"
	},
	{
		"country": "FR",
		"ville": "Villelaure",
		"lat": "43.71319",
		"lng": "5.43072"
	},
	{
		"country": "FR",
		"ville": "Ville-la-Grand",
		"lat": "46.203",
		"lng": "6.2501"
	},
	{
		"country": "FR",
		"ville": "Villejust",
		"lat": "48.68304",
		"lng": "2.2361"
	},
	{
		"country": "FR",
		"ville": "Villejuif",
		"lat": "48.7939",
		"lng": "2.35992"
	},
	{
		"country": "FR",
		"ville": "Villegouge",
		"lat": "44.96667",
		"lng": "-0.3"
	},
	{
		"country": "FR",
		"ville": "Villegailhenc",
		"lat": "43.26867",
		"lng": "2.35469"
	},
	{
		"country": "FR",
		"ville": "Villefranque",
		"lat": "43.43631",
		"lng": "-1.45324"
	},
	{
		"country": "FR",
		"ville": "Villefranche-sur-Saône",
		"lat": "45.98333",
		"lng": "4.71667"
	},
	{
		"country": "FR",
		"ville": "Villefranche-sur-Mer",
		"lat": "43.70392",
		"lng": "7.31088"
	},
	{
		"country": "FR",
		"ville": "Villefranche-de-Rouergue",
		"lat": "44.35166",
		"lng": "2.03702"
	},
	{
		"country": "FR",
		"ville": "Villefranche-de-Lauragais",
		"lat": "43.4",
		"lng": "1.71694"
	},
	{
		"country": "FR",
		"ville": "Villefranche-d'Allier",
		"lat": "46.39715",
		"lng": "2.85677"
	},
	{
		"country": "FR",
		"ville": "Villefranche-d'Albigeois",
		"lat": "43.89635",
		"lng": "2.33022"
	},
	{
		"country": "FR",
		"ville": "Villefranche-sur-Cher",
		"lat": "47.3",
		"lng": "1.76667"
	},
	{
		"country": "FR",
		"ville": "Villefontaine",
		"lat": "45.6125",
		"lng": "5.14558"
	},
	{
		"country": "FR",
		"ville": "Villefagnan",
		"lat": "46.0114",
		"lng": "0.07936"
	},
	{
		"country": "FR",
		"ville": "Villedômer",
		"lat": "47.54651",
		"lng": "0.88775"
	},
	{
		"country": "FR",
		"ville": "Villedieu-sur-Indre",
		"lat": "46.84598",
		"lng": "1.53975"
	},
	{
		"country": "FR",
		"ville": "Villedieu-les-Poêles",
		"lat": "48.83333",
		"lng": "-1.21667"
	},
	{
		"country": "FR",
		"ville": "Villedieu-la-Blouère",
		"lat": "47.14738",
		"lng": "-1.06286"
	},
	{
		"country": "FR",
		"ville": "Ville-d'Avray",
		"lat": "48.82358",
		"lng": "2.19311"
	},
	{
		"country": "FR",
		"ville": "Villecroze",
		"lat": "43.58181",
		"lng": "6.27542"
	},
	{
		"country": "FR",
		"ville": "Villecresnes",
		"lat": "48.72002",
		"lng": "2.5394"
	},
	{
		"country": "FR",
		"ville": "Villebret",
		"lat": "46.26685",
		"lng": "2.63827"
	},
	{
		"country": "FR",
		"ville": "Villebon-sur-Yvette",
		"lat": "48.70594",
		"lng": "2.24019"
	},
	{
		"country": "FR",
		"ville": "Villebois",
		"lat": "45.84947",
		"lng": "5.43226"
	},
	{
		"country": "FR",
		"ville": "Villeblevin",
		"lat": "48.32446",
		"lng": "3.08038"
	},
	{
		"country": "FR",
		"ville": "Villebernier",
		"lat": "47.25374",
		"lng": "-0.03229"
	},
	{
		"country": "FR",
		"ville": "Villebarou",
		"lat": "47.62344",
		"lng": "1.32252"
	},
	{
		"country": "FR",
		"ville": "Villé",
		"lat": "48.3427",
		"lng": "7.3026"
	},
	{
		"country": "FR",
		"ville": "Villaz",
		"lat": "45.95069",
		"lng": "6.18717"
	},
	{
		"country": "FR",
		"ville": "Villaudric",
		"lat": "43.83044",
		"lng": "1.43166"
	},
	{
		"country": "FR",
		"ville": "Villars-les-Dombes",
		"lat": "46.00227",
		"lng": "5.02905"
	},
	{
		"country": "FR",
		"ville": "Villar-Saint-Pancrace",
		"lat": "44.87318",
		"lng": "6.62669"
	},
	{
		"country": "FR",
		"ville": "Villars",
		"lat": "45.47118",
		"lng": "4.35447"
	},
	{
		"country": "FR",
		"ville": "Villargondran",
		"lat": "45.27113",
		"lng": "6.3695"
	},
	{
		"country": "FR",
		"ville": "Villard-de-Lans",
		"lat": "45.0707",
		"lng": "5.55281"
	},
	{
		"country": "FR",
		"ville": "Villard-Bonnot",
		"lat": "45.24",
		"lng": "5.89015"
	},
	{
		"country": "FR",
		"ville": "Villandry",
		"lat": "47.34019",
		"lng": "0.5105"
	},
	{
		"country": "FR",
		"ville": "Villaines-la-Juhel",
		"lat": "48.34416",
		"lng": "-0.27734"
	},
	{
		"country": "FR",
		"ville": "Village-Neuf",
		"lat": "47.59016",
		"lng": "7.57019"
	},
	{
		"country": "FR",
		"ville": "Villabé",
		"lat": "48.58949",
		"lng": "2.45096"
	},
	{
		"country": "FR",
		"ville": "Vihiers",
		"lat": "47.14631",
		"lng": "-0.53238"
	},
	{
		"country": "FR",
		"ville": "Vigy",
		"lat": "49.20443",
		"lng": "6.29906"
	},
	{
		"country": "FR",
		"ville": "Vigny",
		"lat": "49.07902",
		"lng": "1.92806"
	},
	{
		"country": "FR",
		"ville": "Vignoux-sur-Barangeon",
		"lat": "47.20068",
		"lng": "2.17258"
	},
	{
		"country": "FR",
		"ville": "Vignot",
		"lat": "48.77418",
		"lng": "5.60904"
	},
	{
		"country": "FR",
		"ville": "Vignoc",
		"lat": "48.24842",
		"lng": "-1.78169"
	},
	{
		"country": "FR",
		"ville": "Vigneux-sur-Seine",
		"lat": "48.70291",
		"lng": "2.41357"
	},
	{
		"country": "FR",
		"ville": "Vigneux-de-Bretagne",
		"lat": "47.32547",
		"lng": "-1.73678"
	},
	{
		"country": "FR",
		"ville": "Vigneulles-lès-Hattonchâtel",
		"lat": "48.98152",
		"lng": "5.70464"
	},
	{
		"country": "FR",
		"ville": "Vignacourt",
		"lat": "50.01236",
		"lng": "2.19743"
	},
	{
		"country": "FR",
		"ville": "Vigeois",
		"lat": "45.38014",
		"lng": "1.51635"
	},
	{
		"country": "FR",
		"ville": "Vif",
		"lat": "45.05436",
		"lng": "5.67757"
	},
	{
		"country": "FR",
		"ville": "Vieux-Thann",
		"lat": "47.80347",
		"lng": "7.12068"
	},
	{
		"country": "FR",
		"ville": "Le Vieux-Marché",
		"lat": "48.6",
		"lng": "-3.45"
	},
	{
		"country": "FR",
		"ville": "Vieux-Condé",
		"lat": "50.45944",
		"lng": "3.56738"
	},
	{
		"country": "FR",
		"ville": "Vieux-Charmont",
		"lat": "47.5219",
		"lng": "6.83738"
	},
	{
		"country": "FR",
		"ville": "Vieux-Boucau-les-Bains",
		"lat": "43.78947",
		"lng": "-1.39957"
	},
	{
		"country": "FR",
		"ville": "Vieux-Berquin",
		"lat": "50.69489",
		"lng": "2.64444"
	},
	{
		"country": "FR",
		"ville": "Viesly",
		"lat": "50.15345",
		"lng": "3.46236"
	},
	{
		"country": "FR",
		"ville": "Vierzon",
		"lat": "47.21667",
		"lng": "2.08333"
	},
	{
		"country": "FR",
		"ville": "Vienne-en-Val",
		"lat": "47.80036",
		"lng": "2.1346"
	},
	{
		"country": "FR",
		"ville": "Vienne",
		"lat": "45.51667",
		"lng": "4.86667"
	},
	{
		"country": "FR",
		"ville": "Viennay",
		"lat": "46.68711",
		"lng": "-0.24641"
	},
	{
		"country": "FR",
		"ville": "Vielmur-sur-Agout",
		"lat": "43.61667",
		"lng": "2.1"
	},
	{
		"country": "FR",
		"ville": "Vielle-Saint-Girons",
		"lat": "43.95",
		"lng": "-1.3"
	},
	{
		"country": "FR",
		"ville": "Vieillevigne",
		"lat": "46.97214",
		"lng": "-1.43405"
	},
	{
		"country": "FR",
		"ville": "Vieille-Toulouse",
		"lat": "43.52366",
		"lng": "1.4423"
	},
	{
		"country": "FR",
		"ville": "Vieille-Église",
		"lat": "50.92823",
		"lng": "2.07671"
	},
	{
		"country": "FR",
		"ville": "Vieille Chapelle",
		"lat": "43.24963",
		"lng": "5.38048"
	},
	{
		"country": "FR",
		"ville": "Vieille-Brioude",
		"lat": "45.26648",
		"lng": "3.40272"
	},
	{
		"country": "FR",
		"ville": "Vidauban",
		"lat": "43.4278",
		"lng": "6.4329"
	},
	{
		"country": "FR",
		"ville": "Vic-sur-Seille",
		"lat": "48.78195",
		"lng": "6.53079"
	},
	{
		"country": "FR",
		"ville": "Vic-sur-Cère",
		"lat": "44.97929",
		"lng": "2.62485"
	},
	{
		"country": "FR",
		"ville": "Vic-sur-Aisne",
		"lat": "49.40609",
		"lng": "3.11223"
	},
	{
		"country": "FR",
		"ville": "Vicq-sur-Breuilh",
		"lat": "45.64661",
		"lng": "1.38179"
	},
	{
		"country": "FR",
		"ville": "Vicq",
		"lat": "50.40738",
		"lng": "3.60348"
	},
	{
		"country": "FR",
		"ville": "Vic-le-Comte",
		"lat": "45.64317",
		"lng": "3.24638"
	},
	{
		"country": "FR",
		"ville": "Vic-la-Gardiole",
		"lat": "43.4908",
		"lng": "3.7975"
	},
	{
		"country": "FR",
		"ville": "Vichy",
		"lat": "46.11667",
		"lng": "3.41667"
	},
	{
		"country": "FR",
		"ville": "Vic-Fezensac",
		"lat": "43.77183",
		"lng": "0.31368"
	},
	{
		"country": "FR",
		"ville": "Vic-en-Bigorre",
		"lat": "43.38682",
		"lng": "0.05471"
	},
	{
		"country": "FR",
		"ville": "Vibraye",
		"lat": "48.05607",
		"lng": "0.74171"
	},
	{
		"country": "FR",
		"ville": "Vias",
		"lat": "43.31156",
		"lng": "3.41774"
	},
	{
		"country": "FR",
		"ville": "Viarmes",
		"lat": "49.13082",
		"lng": "2.37074"
	},
	{
		"country": "FR",
		"ville": "Vianne",
		"lat": "44.19658",
		"lng": "0.32104"
	},
	{
		"country": "FR",
		"ville": "Vezins",
		"lat": "47.12015",
		"lng": "-0.70971"
	},
	{
		"country": "FR",
		"ville": "Vezin-le-Coquet",
		"lat": "48.11857",
		"lng": "-1.75466"
	},
	{
		"country": "FR",
		"ville": "Vézénobres",
		"lat": "44.0513",
		"lng": "4.13775"
	},
	{
		"country": "FR",
		"ville": "Vézelise",
		"lat": "48.48682",
		"lng": "6.08894"
	},
	{
		"country": "FR",
		"ville": "Veyrier-du-Lac",
		"lat": "45.8799",
		"lng": "6.17751"
	},
	{
		"country": "FR",
		"ville": "Veyre-Monton",
		"lat": "45.66866",
		"lng": "3.17144"
	},
	{
		"country": "FR",
		"ville": "Veyras",
		"lat": "44.73518",
		"lng": "4.56254"
	},
	{
		"country": "FR",
		"ville": "Veyrac",
		"lat": "45.89521",
		"lng": "1.105"
	},
	{
		"country": "FR",
		"ville": "Veynes",
		"lat": "44.53333",
		"lng": "5.81667"
	},
	{
		"country": "FR",
		"ville": "Veurey-Voroize",
		"lat": "45.27307",
		"lng": "5.61319"
	},
	{
		"country": "FR",
		"ville": "Vétraz-Monthoux",
		"lat": "46.1743",
		"lng": "6.25852"
	},
	{
		"country": "FR",
		"ville": "Vestric-et-Candiac",
		"lat": "43.74061",
		"lng": "4.25914"
	},
	{
		"country": "FR",
		"ville": "Vesseaux",
		"lat": "44.65136",
		"lng": "4.44259"
	},
	{
		"country": "FR",
		"ville": "Vesoul",
		"lat": "47.62604",
		"lng": "6.14251"
	},
	{
		"country": "FR",
		"ville": "Vescovato",
		"lat": "42.49278",
		"lng": "9.43916"
	},
	{
		"country": "FR",
		"ville": "Verzy",
		"lat": "49.14576",
		"lng": "4.16409"
	},
	{
		"country": "FR",
		"ville": "Verzenay",
		"lat": "49.15918",
		"lng": "4.14543"
	},
	{
		"country": "FR",
		"ville": "Vervins",
		"lat": "49.83333",
		"lng": "3.9"
	},
	{
		"country": "FR",
		"ville": "Vertus",
		"lat": "48.90609",
		"lng": "4.00216"
	},
	{
		"country": "FR",
		"ville": "Vert-Saint-Denis",
		"lat": "48.56818",
		"lng": "2.62007"
	},
	{
		"country": "FR",
		"ville": "Vertou",
		"lat": "47.16869",
		"lng": "-1.46929"
	},
	{
		"country": "FR",
		"ville": "Verton",
		"lat": "50.40234",
		"lng": "1.64766"
	},
	{
		"country": "FR",
		"ville": "Vert-le-Petit",
		"lat": "48.55163",
		"lng": "2.36526"
	},
	{
		"country": "FR",
		"ville": "Vert-le-Grand",
		"lat": "48.57172",
		"lng": "2.35777"
	},
	{
		"country": "FR",
		"ville": "Vertheuil",
		"lat": "45.25",
		"lng": "-0.83333"
	},
	{
		"country": "FR",
		"ville": "Vert-en-Drouais",
		"lat": "48.76029",
		"lng": "1.2946"
	},
	{
		"country": "FR",
		"ville": "Vertaizon",
		"lat": "45.77136",
		"lng": "3.28884"
	},
	{
		"country": "FR",
		"ville": "Ver-sur-Mer",
		"lat": "49.32987",
		"lng": "-0.53118"
	},
	{
		"country": "FR",
		"ville": "Ver-sur-Launette",
		"lat": "49.10495",
		"lng": "2.68409"
	},
	{
		"country": "FR",
		"ville": "Versonnex",
		"lat": "45.92753",
		"lng": "5.92585"
	},
	{
		"country": "FR",
		"ville": "Verson",
		"lat": "49.15432",
		"lng": "-0.45628"
	},
	{
		"country": "FR",
		"ville": "Versailles",
		"lat": "48.80359",
		"lng": "2.13424"
	},
	{
		"country": "FR",
		"ville": "Vers-Pont-du-Gard",
		"lat": "43.96667",
		"lng": "4.53333"
	},
	{
		"country": "FR",
		"ville": "Verrières-le-Buisson",
		"lat": "48.74565",
		"lng": "2.26796"
	},
	{
		"country": "FR",
		"ville": "Verrières",
		"lat": "48.23334",
		"lng": "4.14893"
	},
	{
		"country": "FR",
		"ville": "Verquin",
		"lat": "50.5024",
		"lng": "2.63888"
	},
	{
		"country": "FR",
		"ville": "Véron",
		"lat": "48.12853",
		"lng": "3.30773"
	},
	{
		"country": "FR",
		"ville": "Verny",
		"lat": "49.00677",
		"lng": "6.2035"
	},
	{
		"country": "FR",
		"ville": "Vern-sur-Seiche",
		"lat": "48.04514",
		"lng": "-1.60057"
	},
	{
		"country": "FR",
		"ville": "Vernoux-en-Vivarais",
		"lat": "44.89563",
		"lng": "4.64643"
	},
	{
		"country": "FR",
		"ville": "Vernou-la-Celle-sur-Seine",
		"lat": "48.38789",
		"lng": "2.84718"
	},
	{
		"country": "FR",
		"ville": "Vernou-sur-Brenne",
		"lat": "47.41936",
		"lng": "0.84757"
	},
	{
		"country": "FR",
		"ville": "Vernouillet",
		"lat": "48.97146",
		"lng": "1.98082"
	},
	{
		"country": "FR",
		"ville": "Vernouillet",
		"lat": "48.7209",
		"lng": "1.36951"
	},
	{
		"country": "FR",
		"ville": "Vernosc-lès-Annonay",
		"lat": "45.21676",
		"lng": "4.71252"
	},
	{
		"country": "FR",
		"ville": "Vernon",
		"lat": "49.09292",
		"lng": "1.46332"
	},
	{
		"country": "FR",
		"ville": "Vernoil-le-Fourrier",
		"lat": "47.38333",
		"lng": "0.08333"
	},
	{
		"country": "FR",
		"ville": "Vernioz",
		"lat": "45.42682",
		"lng": "4.88188"
	},
	{
		"country": "FR",
		"ville": "Verniolle",
		"lat": "43.08162",
		"lng": "1.64904"
	},
	{
		"country": "FR",
		"ville": "Verneuil-sur-Vienne",
		"lat": "45.85524",
		"lng": "1.10133"
	},
	{
		"country": "FR",
		"ville": "Verneuil-sur-Seine",
		"lat": "48.97388",
		"lng": "1.9648"
	},
	{
		"country": "FR",
		"ville": "Verneuil-sur-Avre",
		"lat": "48.73949",
		"lng": "0.92731"
	},
	{
		"country": "FR",
		"ville": "Verneuil-en-Halatte",
		"lat": "49.27914",
		"lng": "2.5241"
	},
	{
		"country": "FR",
		"ville": "Vernet-les-Bains",
		"lat": "42.54834",
		"lng": "2.38717"
	},
	{
		"country": "FR",
		"ville": "Vernègues",
		"lat": "43.68575",
		"lng": "5.17156"
	},
	{
		"country": "FR",
		"ville": "Vern-d'Anjou",
		"lat": "47.60119",
		"lng": "-0.83357"
	},
	{
		"country": "FR",
		"ville": "Vernantes",
		"lat": "47.3932",
		"lng": "0.05304"
	},
	{
		"country": "FR",
		"ville": "Vernaison",
		"lat": "45.64693",
		"lng": "4.81249"
	},
	{
		"country": "FR",
		"ville": "Vermenton",
		"lat": "47.66459",
		"lng": "3.73501"
	},
	{
		"country": "FR",
		"ville": "Vermelles",
		"lat": "50.48949",
		"lng": "2.74739"
	},
	{
		"country": "FR",
		"ville": "Vermand",
		"lat": "49.8755",
		"lng": "3.14959"
	},
	{
		"country": "FR",
		"ville": "Verlinghem",
		"lat": "50.68291",
		"lng": "2.99907"
	},
	{
		"country": "FR",
		"ville": "Vérines",
		"lat": "46.19372",
		"lng": "-0.96683"
	},
	{
		"country": "FR",
		"ville": "Vergt",
		"lat": "45.02695",
		"lng": "0.7182"
	},
	{
		"country": "FR",
		"ville": "Vergongheon",
		"lat": "45.37058",
		"lng": "3.31915"
	},
	{
		"country": "FR",
		"ville": "Vergigny",
		"lat": "47.97059",
		"lng": "3.71861"
	},
	{
		"country": "FR",
		"ville": "Vergèze",
		"lat": "43.74404",
		"lng": "4.22109"
	},
	{
		"country": "FR",
		"ville": "Verfeil",
		"lat": "43.65781",
		"lng": "1.6634"
	},
	{
		"country": "FR",
		"ville": "Véretz",
		"lat": "47.35706",
		"lng": "0.80575"
	},
	{
		"country": "FR",
		"ville": "Verdun",
		"lat": "49.16667",
		"lng": "5.38333"
	},
	{
		"country": "FR",
		"ville": "Verdun-sur-le-Doubs",
		"lat": "46.89692",
		"lng": "5.02127"
	},
	{
		"country": "FR",
		"ville": "Verdun-sur-Garonne",
		"lat": "43.85446",
		"lng": "1.23425"
	},
	{
		"country": "FR",
		"ville": "Vercel-Villedieu-le-Camp",
		"lat": "47.18318",
		"lng": "6.40082"
	},
	{
		"country": "FR",
		"ville": "Verberie",
		"lat": "49.31115",
		"lng": "2.7321"
	},
	{
		"country": "FR",
		"ville": "Ventiseri",
		"lat": "41.94169",
		"lng": "9.33173"
	},
	{
		"country": "FR",
		"ville": "Ventabren",
		"lat": "43.53847",
		"lng": "5.29541"
	},
	{
		"country": "FR",
		"ville": "Venoy",
		"lat": "47.80518",
		"lng": "3.63695"
	},
	{
		"country": "FR",
		"ville": "Vennecy",
		"lat": "47.95465",
		"lng": "2.05459"
	},
	{
		"country": "FR",
		"ville": "Venizel",
		"lat": "49.36583",
		"lng": "3.39321"
	},
	{
		"country": "FR",
		"ville": "Vénissieux",
		"lat": "45.70254",
		"lng": "4.87147"
	},
	{
		"country": "FR",
		"ville": "Veneux-les-Sablons",
		"lat": "48.37872",
		"lng": "2.79499"
	},
	{
		"country": "FR",
		"ville": "Venette",
		"lat": "49.41705",
		"lng": "2.80317"
	},
	{
		"country": "FR",
		"ville": "Venerque",
		"lat": "43.43457",
		"lng": "1.44588"
	},
	{
		"country": "FR",
		"ville": "Venelles",
		"lat": "43.59839",
		"lng": "5.48529"
	},
	{
		"country": "FR",
		"ville": "Vénéjan",
		"lat": "44.19729",
		"lng": "4.65422"
	},
	{
		"country": "FR",
		"ville": "Vendres",
		"lat": "43.26977",
		"lng": "3.22341"
	},
	{
		"country": "FR",
		"ville": "Vendrennes",
		"lat": "46.82523",
		"lng": "-1.12357"
	},
	{
		"country": "FR",
		"ville": "Vendôme",
		"lat": "47.8",
		"lng": "1.06667"
	},
	{
		"country": "FR",
		"ville": "Vendœuvres",
		"lat": "46.8",
		"lng": "1.35"
	},
	{
		"country": "FR",
		"ville": "Vendin-le-Vieil",
		"lat": "50.47385",
		"lng": "2.86674"
	},
	{
		"country": "FR",
		"ville": "Vendin-lès-Béthune",
		"lat": "50.54012",
		"lng": "2.60043"
	},
	{
		"country": "FR",
		"ville": "Vendeville",
		"lat": "50.57693",
		"lng": "3.0787"
	},
	{
		"country": "FR",
		"ville": "Vendeuvre-sur-Barse",
		"lat": "48.23786",
		"lng": "4.46905"
	},
	{
		"country": "FR",
		"ville": "Vendeuvre-du-Poitou",
		"lat": "46.73579",
		"lng": "0.30996"
	},
	{
		"country": "FR",
		"ville": "Vendenheim",
		"lat": "48.66948",
		"lng": "7.70983"
	},
	{
		"country": "FR",
		"ville": "Vendegies-sur-Écaillon",
		"lat": "50.26224",
		"lng": "3.51256"
	},
	{
		"country": "FR",
		"ville": "Vendays-Montalivet",
		"lat": "45.35492",
		"lng": "-1.06088"
	},
	{
		"country": "FR",
		"ville": "Vendat",
		"lat": "46.16015",
		"lng": "3.35451"
	},
	{
		"country": "FR",
		"ville": "Vendargues",
		"lat": "43.65833",
		"lng": "3.97"
	},
	{
		"country": "FR",
		"ville": "Vence",
		"lat": "43.72254",
		"lng": "7.11183"
	},
	{
		"country": "FR",
		"ville": "Venasque",
		"lat": "43.99214",
		"lng": "5.14895"
	},
	{
		"country": "FR",
		"ville": "Venarey-les-Laumes",
		"lat": "47.54202",
		"lng": "4.46022"
	},
	{
		"country": "FR",
		"ville": "Venansault",
		"lat": "46.68516",
		"lng": "-1.51415"
	},
	{
		"country": "FR",
		"ville": "Vémars",
		"lat": "49.06942",
		"lng": "2.56643"
	},
	{
		"country": "FR",
		"ville": "Velleron",
		"lat": "43.95759",
		"lng": "5.02879"
	},
	{
		"country": "FR",
		"ville": "Vélizy-Villacoublay",
		"lat": "48.78198",
		"lng": "2.19395"
	},
	{
		"country": "FR",
		"ville": "Vélines",
		"lat": "44.85",
		"lng": "0.11667"
	},
	{
		"country": "FR",
		"ville": "Velaux",
		"lat": "43.52839",
		"lng": "5.25661"
	},
	{
		"country": "FR",
		"ville": "Velars-sur-Ouche",
		"lat": "47.3196",
		"lng": "4.90594"
	},
	{
		"country": "FR",
		"ville": "Velaines",
		"lat": "48.6988",
		"lng": "5.30483"
	},
	{
		"country": "FR",
		"ville": "Velaine-en-Haye",
		"lat": "48.70383",
		"lng": "6.02122"
	},
	{
		"country": "FR",
		"ville": "Veigy-Foncenex",
		"lat": "46.27044",
		"lng": "6.25419"
	},
	{
		"country": "FR",
		"ville": "Veigné",
		"lat": "47.28556",
		"lng": "0.74079"
	},
	{
		"country": "FR",
		"ville": "Vedène",
		"lat": "43.97744",
		"lng": "4.90428"
	},
	{
		"country": "FR",
		"ville": "Vecoux",
		"lat": "47.97797",
		"lng": "6.63651"
	},
	{
		"country": "FR",
		"ville": "Veauche",
		"lat": "45.56294",
		"lng": "4.29031"
	},
	{
		"country": "FR",
		"ville": "Vayres",
		"lat": "44.9",
		"lng": "-0.31667"
	},
	{
		"country": "FR",
		"ville": "Vayrac",
		"lat": "44.95337",
		"lng": "1.70358"
	},
	{
		"country": "FR",
		"ville": "Vay",
		"lat": "47.55466",
		"lng": "-1.70095"
	},
	{
		"country": "FR",
		"ville": "Vaux-sur-Seine",
		"lat": "49.01271",
		"lng": "1.96942"
	},
	{
		"country": "FR",
		"ville": "Vaux-sur-Mer",
		"lat": "45.64606",
		"lng": "-1.05841"
	},
	{
		"country": "FR",
		"ville": "Vaux-le-Pénil",
		"lat": "48.52803",
		"lng": "2.69165"
	},
	{
		"country": "FR",
		"ville": "Vaux-en-Bugey",
		"lat": "45.92711",
		"lng": "5.35336"
	},
	{
		"country": "FR",
		"ville": "Vauvert",
		"lat": "43.69529",
		"lng": "4.27705"
	},
	{
		"country": "FR",
		"ville": "Vauréal",
		"lat": "49.03333",
		"lng": "2.03333"
	},
	{
		"country": "FR",
		"ville": "Vaumoise",
		"lat": "49.23525",
		"lng": "2.98077"
	},
	{
		"country": "FR",
		"ville": "Vaulx-Vraucourt",
		"lat": "50.1491",
		"lng": "2.9083"
	},
	{
		"country": "FR",
		"ville": "Vaulx-Milieu",
		"lat": "45.61226",
		"lng": "5.181"
	},
	{
		"country": "FR",
		"ville": "Vaulx-en-Velin",
		"lat": "45.7818",
		"lng": "4.92085"
	},
	{
		"country": "FR",
		"ville": "Vaulnaveys-le-Haut",
		"lat": "45.11696",
		"lng": "5.81257"
	},
	{
		"country": "FR",
		"ville": "Vaulnaveys-le-Bas",
		"lat": "45.1002",
		"lng": "5.82532"
	},
	{
		"country": "FR",
		"ville": "Vaujours",
		"lat": "48.93022",
		"lng": "2.5711"
	},
	{
		"country": "FR",
		"ville": "Vauhallan",
		"lat": "48.73354",
		"lng": "2.20277"
	},
	{
		"country": "FR",
		"ville": "Vaugrigneuse",
		"lat": "48.60263",
		"lng": "2.12218"
	},
	{
		"country": "FR",
		"ville": "Vaugneray",
		"lat": "45.73717",
		"lng": "4.65873"
	},
	{
		"country": "FR",
		"ville": "Vaudry",
		"lat": "48.8413",
		"lng": "-0.85309"
	},
	{
		"country": "FR",
		"ville": "Vaudelnay",
		"lat": "47.13813",
		"lng": "-0.20677"
	},
	{
		"country": "FR",
		"ville": "Vaucresson",
		"lat": "48.84078",
		"lng": "2.15652"
	},
	{
		"country": "FR",
		"ville": "Vaucouleurs",
		"lat": "48.60313",
		"lng": "5.66659"
	},
	{
		"country": "FR",
		"ville": "Vauchrétien",
		"lat": "47.33234",
		"lng": "-0.47678"
	},
	{
		"country": "FR",
		"ville": "Vatan",
		"lat": "47.07447",
		"lng": "1.8101"
	},
	{
		"country": "FR",
		"ville": "Vassy",
		"lat": "48.85381",
		"lng": "-0.67485"
	},
	{
		"country": "FR",
		"ville": "Vasselay",
		"lat": "47.15686",
		"lng": "2.38963"
	},
	{
		"country": "FR",
		"ville": "Vasles",
		"lat": "46.57618",
		"lng": "-0.02638"
	},
	{
		"country": "FR",
		"ville": "Varzy",
		"lat": "47.3581",
		"lng": "3.38619"
	},
	{
		"country": "FR",
		"ville": "Vars",
		"lat": "45.76256",
		"lng": "0.12478"
	},
	{
		"country": "FR",
		"ville": "Varreddes",
		"lat": "49.00305",
		"lng": "2.92788"
	},
	{
		"country": "FR",
		"ville": "Varrains",
		"lat": "47.22305",
		"lng": "-0.06033"
	},
	{
		"country": "FR",
		"ville": "Varois-et-Chaignot",
		"lat": "47.35059",
		"lng": "5.12838"
	},
	{
		"country": "FR",
		"ville": "Varilhes",
		"lat": "43.04514",
		"lng": "1.62805"
	},
	{
		"country": "FR",
		"ville": "Varetz",
		"lat": "45.1939",
		"lng": "1.45121"
	},
	{
		"country": "FR",
		"ville": "Varennes-sur-Seine",
		"lat": "48.37304",
		"lng": "2.92571"
	},
	{
		"country": "FR",
		"ville": "Varennes-sur-Loire",
		"lat": "47.23767",
		"lng": "0.0535"
	},
	{
		"country": "FR",
		"ville": "Varennes-sur-Allier",
		"lat": "46.31472",
		"lng": "3.39846"
	},
	{
		"country": "FR",
		"ville": "Varennes-Saint-Sauveur",
		"lat": "46.48226",
		"lng": "5.24349"
	},
	{
		"country": "FR",
		"ville": "Varennes-le-Grand",
		"lat": "46.71868",
		"lng": "4.86872"
	},
	{
		"country": "FR",
		"ville": "Varennes-Jarcy",
		"lat": "48.67914",
		"lng": "2.56152"
	},
	{
		"country": "FR",
		"ville": "Varengeville-sur-Mer",
		"lat": "49.90475",
		"lng": "0.99479"
	},
	{
		"country": "FR",
		"ville": "Varangéville",
		"lat": "48.63605",
		"lng": "6.32112"
	},
	{
		"country": "FR",
		"ville": "Varades",
		"lat": "47.38458",
		"lng": "-1.02842"
	},
	{
		"country": "FR",
		"ville": "Vanves",
		"lat": "48.82345",
		"lng": "2.29025"
	},
	{
		"country": "FR",
		"ville": "Vannes",
		"lat": "47.6579",
		"lng": "-2.75574"
	},
	{
		"country": "FR",
		"ville": "Vandœuvre-lès-Nancy",
		"lat": "48.65",
		"lng": "6.18333"
	},
	{
		"country": "FR",
		"ville": "Vals-près-le-Puy",
		"lat": "45.03155",
		"lng": "3.87787"
	},
	{
		"country": "FR",
		"ville": "Vals-les-Bains",
		"lat": "44.66387",
		"lng": "4.36861"
	},
	{
		"country": "FR",
		"ville": "Valros",
		"lat": "43.41956",
		"lng": "3.36506"
	},
	{
		"country": "FR",
		"ville": "Valréas",
		"lat": "44.38366",
		"lng": "4.99084"
	},
	{
		"country": "FR",
		"ville": "Valras-Plage",
		"lat": "43.24808",
		"lng": "3.29032"
	},
	{
		"country": "FR",
		"ville": "Valognes",
		"lat": "49.50881",
		"lng": "-1.47047"
	},
	{
		"country": "FR",
		"ville": "Valmont",
		"lat": "49.0843",
		"lng": "6.69781"
	},
	{
		"country": "FR",
		"ville": "Valmondois",
		"lat": "49.0973",
		"lng": "2.18996"
	},
	{
		"country": "FR",
		"ville": "Vallon-Pont-d'Arc",
		"lat": "44.40558",
		"lng": "4.39254"
	},
	{
		"country": "FR",
		"ville": "Vallon-en-Sully",
		"lat": "46.53676",
		"lng": "2.60828"
	},
	{
		"country": "FR",
		"ville": "Valloire",
		"lat": "45.16565",
		"lng": "6.42994"
	},
	{
		"country": "FR",
		"ville": "Valliquerville",
		"lat": "49.61385",
		"lng": "0.68703"
	},
	{
		"country": "FR",
		"ville": "Vallières",
		"lat": "45.90262",
		"lng": "5.93811"
	},
	{
		"country": "FR",
		"ville": "Vallet",
		"lat": "47.16227",
		"lng": "-1.26607"
	},
	{
		"country": "FR",
		"ville": "Valleroy",
		"lat": "49.20905",
		"lng": "5.9383"
	},
	{
		"country": "FR",
		"ville": "Valleraugue",
		"lat": "44.0813",
		"lng": "3.64154"
	},
	{
		"country": "FR",
		"ville": "Valleiry",
		"lat": "46.11117",
		"lng": "5.97267"
	},
	{
		"country": "FR",
		"ville": "Vallauris",
		"lat": "43.57803",
		"lng": "7.05451"
	},
	{
		"country": "FR",
		"ville": "Vallabrègues",
		"lat": "43.85307",
		"lng": "4.62662"
	},
	{
		"country": "FR",
		"ville": "Valframbert",
		"lat": "48.46465",
		"lng": "0.10828"
	},
	{
		"country": "FR",
		"ville": "Valfin-lès-Saint-Claude",
		"lat": "46.43758",
		"lng": "5.85513"
	},
	{
		"country": "FR",
		"ville": "Valff",
		"lat": "48.4214",
		"lng": "7.52058"
	},
	{
		"country": "FR",
		"ville": "Valergues",
		"lat": "43.66824",
		"lng": "4.06124"
	},
	{
		"country": "FR",
		"ville": "Valenton",
		"lat": "48.74527",
		"lng": "2.46467"
	},
	{
		"country": "FR",
		"ville": "Valentigney",
		"lat": "47.46388",
		"lng": "6.83168"
	},
	{
		"country": "FR",
		"ville": "Valensole",
		"lat": "43.83799",
		"lng": "5.98323"
	},
	{
		"country": "FR",
		"ville": "Valencin",
		"lat": "45.61285",
		"lng": "5.01565"
	},
	{
		"country": "FR",
		"ville": "Valenciennes",
		"lat": "50.35",
		"lng": "3.53333"
	},
	{
		"country": "FR",
		"ville": "Valence-sur-Baïse",
		"lat": "43.8827",
		"lng": "0.38111"
	},
	{
		"country": "FR",
		"ville": "Valence-d'Albigeois",
		"lat": "44.01928",
		"lng": "2.40534"
	},
	{
		"country": "FR",
		"ville": "Valence",
		"lat": "44.92801",
		"lng": "4.8951"
	},
	{
		"country": "FR",
		"ville": "Valence",
		"lat": "44.10823",
		"lng": "0.89101"
	},
	{
		"country": "FR",
		"ville": "Valençay",
		"lat": "47.16207",
		"lng": "1.56852"
	},
	{
		"country": "FR",
		"ville": "Valdoie",
		"lat": "47.66799",
		"lng": "6.84446"
	},
	{
		"country": "FR",
		"ville": "Val-d'Isère",
		"lat": "45.44972",
		"lng": "6.9781"
	},
	{
		"country": "FR",
		"ville": "Valbonne",
		"lat": "43.63292",
		"lng": "6.99911"
	},
	{
		"country": "FR",
		"ville": "Valady",
		"lat": "44.45633",
		"lng": "2.42746"
	},
	{
		"country": "FR",
		"ville": "Vaivre-et-Montoille",
		"lat": "47.63021",
		"lng": "6.10362"
	},
	{
		"country": "FR",
		"ville": "Vaison-la-Romaine",
		"lat": "44.23896",
		"lng": "5.07461"
	},
	{
		"country": "FR",
		"ville": "Vaires-sur-Marne",
		"lat": "48.87649",
		"lng": "2.63982"
	},
	{
		"country": "FR",
		"ville": "Vairé",
		"lat": "46.60104",
		"lng": "-1.75538"
	},
	{
		"country": "FR",
		"ville": "Vailly-sur-Aisne",
		"lat": "49.40834",
		"lng": "3.51631"
	},
	{
		"country": "FR",
		"ville": "Vailhauquès",
		"lat": "43.67159",
		"lng": "3.72042"
	},
	{
		"country": "FR",
		"ville": "Vaiges",
		"lat": "48.04025",
		"lng": "-0.47513"
	},
	{
		"country": "FR",
		"ville": "Vagney",
		"lat": "48.00629",
		"lng": "6.7174"
	},
	{
		"country": "FR",
		"ville": "Vacquiers",
		"lat": "43.77667",
		"lng": "1.48127"
	},
	{
		"country": "FR",
		"ville": "Vacqueyras",
		"lat": "44.13735",
		"lng": "4.98281"
	},
	{
		"country": "FR",
		"ville": "Vacon",
		"lat": "48.66865",
		"lng": "5.60024"
	},
	{
		"country": "FR",
		"ville": "Vaas",
		"lat": "47.6689",
		"lng": "0.31677"
	},
	{
		"country": "FR",
		"ville": "Uzès",
		"lat": "44.01362",
		"lng": "4.41529"
	},
	{
		"country": "FR",
		"ville": "Uzerche",
		"lat": "45.4212",
		"lng": "1.56395"
	},
	{
		"country": "FR",
		"ville": "Uzemain",
		"lat": "48.08572",
		"lng": "6.34443"
	},
	{
		"country": "FR",
		"ville": "Uzein",
		"lat": "43.4",
		"lng": "-0.43333"
	},
	{
		"country": "FR",
		"ville": "Uxem",
		"lat": "51.0217",
		"lng": "2.48376"
	},
	{
		"country": "FR",
		"ville": "Uxegney",
		"lat": "48.19652",
		"lng": "6.36971"
	},
	{
		"country": "FR",
		"ville": "Ustaritz",
		"lat": "43.3965",
		"lng": "-1.45603"
	},
	{
		"country": "FR",
		"ville": "Usson-en-Forez",
		"lat": "45.38797",
		"lng": "3.93772"
	},
	{
		"country": "FR",
		"ville": "Usson-du-Poitou",
		"lat": "46.27782",
		"lng": "0.52816"
	},
	{
		"country": "FR",
		"ville": "Ussel",
		"lat": "45.55",
		"lng": "2.31667"
	},
	{
		"country": "FR",
		"ville": "Ussac",
		"lat": "45.19389",
		"lng": "1.51337"
	},
	{
		"country": "FR",
		"ville": "Us",
		"lat": "49.1",
		"lng": "1.96667"
	},
	{
		"country": "FR",
		"ville": "Urzy",
		"lat": "47.04877",
		"lng": "3.20295"
	},
	{
		"country": "FR",
		"ville": "Urville-Nacqueville",
		"lat": "49.67444",
		"lng": "-1.73664"
	},
	{
		"country": "FR",
		"ville": "Urt",
		"lat": "43.49009",
		"lng": "-1.29744"
	},
	{
		"country": "FR",
		"ville": "Urrugne",
		"lat": "43.36361",
		"lng": "-1.69921"
	},
	{
		"country": "FR",
		"ville": "Urmatt",
		"lat": "48.52752",
		"lng": "7.32565"
	},
	{
		"country": "FR",
		"ville": "Uriménil",
		"lat": "48.10079",
		"lng": "6.40046"
	},
	{
		"country": "FR",
		"ville": "Urcuit",
		"lat": "43.48594",
		"lng": "-1.33668"
	},
	{
		"country": "FR",
		"ville": "Upie",
		"lat": "44.80359",
		"lng": "4.97778"
	},
	{
		"country": "FR",
		"ville": "Unverre",
		"lat": "48.19829",
		"lng": "1.09207"
	},
	{
		"country": "FR",
		"ville": "Unieux",
		"lat": "45.4004",
		"lng": "4.27812"
	},
	{
		"country": "FR",
		"ville": "Ungersheim",
		"lat": "47.87848",
		"lng": "7.30797"
	},
	{
		"country": "FR",
		"ville": "Ully-Saint-Georges",
		"lat": "49.27914",
		"lng": "2.28094"
	},
	{
		"country": "FR",
		"ville": "Ugine",
		"lat": "45.75084",
		"lng": "6.41611"
	},
	{
		"country": "FR",
		"ville": "Uffholtz",
		"lat": "47.82082",
		"lng": "7.17785"
	},
	{
		"country": "FR",
		"ville": "Uckange",
		"lat": "49.30304",
		"lng": "6.1492"
	},
	{
		"country": "FR",
		"ville": "Uchaux",
		"lat": "44.21667",
		"lng": "4.8"
	},
	{
		"country": "FR",
		"ville": "Uchaud",
		"lat": "43.75857",
		"lng": "4.26843"
	},
	{
		"country": "FR",
		"ville": "Uberach",
		"lat": "48.8499",
		"lng": "7.62934"
	},
	{
		"country": "FR",
		"ville": "Turretot",
		"lat": "49.60923",
		"lng": "0.23422"
	},
	{
		"country": "FR",
		"ville": "Turckheim",
		"lat": "48.08748",
		"lng": "7.27707"
	},
	{
		"country": "FR",
		"ville": "Tullins",
		"lat": "45.29861",
		"lng": "5.48609"
	},
	{
		"country": "FR",
		"ville": "Tulle",
		"lat": "45.27001",
		"lng": "1.77309"
	},
	{
		"country": "FR",
		"ville": "Tulette",
		"lat": "44.28527",
		"lng": "4.9296"
	},
	{
		"country": "FR",
		"ville": "Tuffé",
		"lat": "48.11319",
		"lng": "0.51551"
	},
	{
		"country": "FR",
		"ville": "Tucquegnieux",
		"lat": "49.3014",
		"lng": "5.88247"
	},
	{
		"country": "FR",
		"ville": "Truyes",
		"lat": "47.27299",
		"lng": "0.85179"
	},
	{
		"country": "FR",
		"ville": "Trun",
		"lat": "48.84268",
		"lng": "0.03268"
	},
	{
		"country": "FR",
		"ville": "Truchtersheim",
		"lat": "48.66313",
		"lng": "7.60752"
	},
	{
		"country": "FR",
		"ville": "Troyes",
		"lat": "48.30073",
		"lng": "4.08524"
	},
	{
		"country": "FR",
		"ville": "Trouy",
		"lat": "47.01153",
		"lng": "2.36018"
	},
	{
		"country": "FR",
		"ville": "Trouville-sur-Mer",
		"lat": "49.3657",
		"lng": "0.08041"
	},
	{
		"country": "FR",
		"ville": "Trouillas",
		"lat": "42.61089",
		"lng": "2.80821"
	},
	{
		"country": "FR",
		"ville": "Trosly-Breuil",
		"lat": "49.4",
		"lng": "2.96667"
	},
	{
		"country": "FR",
		"ville": "Tronville-en-Barrois",
		"lat": "48.71977",
		"lng": "5.27808"
	},
	{
		"country": "FR",
		"ville": "Troissereux",
		"lat": "49.47998",
		"lng": "2.04485"
	},
	{
		"country": "FR",
		"ville": "Troarn",
		"lat": "49.17835",
		"lng": "-0.18169"
	},
	{
		"country": "FR",
		"ville": "Trizay",
		"lat": "45.88276",
		"lng": "-0.89697"
	},
	{
		"country": "FR",
		"ville": "Trith-Saint-Léger",
		"lat": "50.31667",
		"lng": "3.48333"
	},
	{
		"country": "FR",
		"ville": "Trilport",
		"lat": "48.95685",
		"lng": "2.95076"
	},
	{
		"country": "FR",
		"ville": "Triguères",
		"lat": "47.93975",
		"lng": "2.9857"
	},
	{
		"country": "FR",
		"ville": "Trignac",
		"lat": "47.31809",
		"lng": "-2.18895"
	},
	{
		"country": "FR",
		"ville": "Trieux",
		"lat": "49.32446",
		"lng": "5.93644"
	},
	{
		"country": "FR",
		"ville": "Triel-sur-Seine",
		"lat": "48.97818",
		"lng": "2.00743"
	},
	{
		"country": "FR",
		"ville": "Trie-Château",
		"lat": "49.2854",
		"lng": "1.82129"
	},
	{
		"country": "FR",
		"ville": "Trie-sur-Baïse",
		"lat": "43.33333",
		"lng": "0.36667"
	},
	{
		"country": "FR",
		"ville": "Tricot",
		"lat": "49.5608",
		"lng": "2.58789"
	},
	{
		"country": "FR",
		"ville": "Triaize",
		"lat": "46.39265",
		"lng": "-1.19785"
	},
	{
		"country": "FR",
		"ville": "Trévoux",
		"lat": "45.94111",
		"lng": "4.76727"
	},
	{
		"country": "FR",
		"ville": "Trévou-Tréguignec",
		"lat": "48.81869",
		"lng": "-3.34132"
	},
	{
		"country": "FR",
		"ville": "Trévol",
		"lat": "46.62886",
		"lng": "3.30457"
	},
	{
		"country": "FR",
		"ville": "Trévé",
		"lat": "48.21147",
		"lng": "-2.79317"
	},
	{
		"country": "FR",
		"ville": "Trets",
		"lat": "43.44818",
		"lng": "5.68328"
	},
	{
		"country": "FR",
		"ville": "Tressin",
		"lat": "50.6175",
		"lng": "3.19354"
	},
	{
		"country": "FR",
		"ville": "Tresses",
		"lat": "44.84781",
		"lng": "-0.46296"
	},
	{
		"country": "FR",
		"ville": "Tresserve",
		"lat": "45.67785",
		"lng": "5.90153"
	},
	{
		"country": "FR",
		"ville": "Tressange",
		"lat": "49.40271",
		"lng": "5.98084"
	},
	{
		"country": "FR",
		"ville": "Tresques",
		"lat": "44.10689",
		"lng": "4.58739"
	},
	{
		"country": "FR",
		"ville": "Tresbœuf",
		"lat": "47.88333",
		"lng": "-1.55"
	},
	{
		"country": "FR",
		"ville": "Trept",
		"lat": "45.68561",
		"lng": "5.31617"
	},
	{
		"country": "FR",
		"ville": "Tréon",
		"lat": "48.67709",
		"lng": "1.32668"
	},
	{
		"country": "FR",
		"ville": "Trémuson",
		"lat": "48.52325",
		"lng": "-2.84833"
	},
	{
		"country": "FR",
		"ville": "Tréméven",
		"lat": "47.9",
		"lng": "-3.53333"
	},
	{
		"country": "FR",
		"ville": "Trémery",
		"lat": "49.2461",
		"lng": "6.22369"
	},
	{
		"country": "FR",
		"ville": "Trémentines",
		"lat": "47.12357",
		"lng": "-0.785"
	},
	{
		"country": "FR",
		"ville": "Tremblay-en-France",
		"lat": "48.94956",
		"lng": "2.5684"
	},
	{
		"country": "FR",
		"ville": "Tremblay",
		"lat": "48.42216",
		"lng": "-1.47555"
	},
	{
		"country": "FR",
		"ville": "Trélon",
		"lat": "50.05805",
		"lng": "4.102"
	},
	{
		"country": "FR",
		"ville": "Trélivan",
		"lat": "48.43198",
		"lng": "-2.11748"
	},
	{
		"country": "FR",
		"ville": "Trélissac",
		"lat": "45.19766",
		"lng": "0.78615"
	},
	{
		"country": "FR",
		"ville": "Trélévern",
		"lat": "48.81071",
		"lng": "-3.37141"
	},
	{
		"country": "FR",
		"ville": "Trélazé",
		"lat": "47.44565",
		"lng": "-0.4654"
	},
	{
		"country": "FR",
		"ville": "Treize-Septiers",
		"lat": "46.98524",
		"lng": "-1.22921"
	},
	{
		"country": "FR",
		"ville": "Treillières",
		"lat": "47.3306",
		"lng": "-1.61918"
	},
	{
		"country": "FR",
		"ville": "Treignac",
		"lat": "45.53558",
		"lng": "1.79621"
	},
	{
		"country": "FR",
		"ville": "Trégunc",
		"lat": "47.85",
		"lng": "-3.85"
	},
	{
		"country": "FR",
		"ville": "Tréguier",
		"lat": "48.78333",
		"lng": "-3.23333"
	},
	{
		"country": "FR",
		"ville": "Trégastel",
		"lat": "48.81667",
		"lng": "-3.5"
	},
	{
		"country": "FR",
		"ville": "Treffort-Cuisiat",
		"lat": "46.26667",
		"lng": "5.36667"
	},
	{
		"country": "FR",
		"ville": "Treffléan",
		"lat": "47.68163",
		"lng": "-2.61287"
	},
	{
		"country": "FR",
		"ville": "Treffiagat",
		"lat": "47.81667",
		"lng": "-4.26667"
	},
	{
		"country": "FR",
		"ville": "Trédrez-Locquémeau",
		"lat": "48.7",
		"lng": "-3.56667"
	},
	{
		"country": "FR",
		"ville": "Trédarzec",
		"lat": "48.78583",
		"lng": "-3.201"
	},
	{
		"country": "FR",
		"ville": "Trébeurden",
		"lat": "48.76667",
		"lng": "-3.56667"
	},
	{
		"country": "FR",
		"ville": "Trèbes",
		"lat": "43.21064",
		"lng": "2.44165"
	},
	{
		"country": "FR",
		"ville": "Trappes",
		"lat": "48.77413",
		"lng": "2.01781"
	},
	{
		"country": "FR",
		"ville": "Trans-en-Provence",
		"lat": "43.505",
		"lng": "6.48571"
	},
	{
		"country": "FR",
		"ville": "Trangé",
		"lat": "48.02706",
		"lng": "0.11054"
	},
	{
		"country": "FR",
		"ville": "Tramoyes",
		"lat": "45.87627",
		"lng": "4.96568"
	},
	{
		"country": "FR",
		"ville": "Traînou",
		"lat": "47.97353",
		"lng": "2.10399"
	},
	{
		"country": "FR",
		"ville": "Tracy-le-Mont",
		"lat": "49.47225",
		"lng": "3.00939"
	},
	{
		"country": "FR",
		"ville": "Touvre",
		"lat": "45.66667",
		"lng": "0.25"
	},
	{
		"country": "FR",
		"ville": "Touvois",
		"lat": "46.90208",
		"lng": "-1.68333"
	},
	{
		"country": "FR",
		"ville": "Toutlemonde",
		"lat": "47.05488",
		"lng": "-0.76548"
	},
	{
		"country": "FR",
		"ville": "Toutainville",
		"lat": "49.36474",
		"lng": "0.46538"
	},
	{
		"country": "FR",
		"ville": "Toussieu",
		"lat": "45.65371",
		"lng": "4.98618"
	},
	{
		"country": "FR",
		"ville": "Toury",
		"lat": "48.19397",
		"lng": "1.93484"
	},
	{
		"country": "FR",
		"ville": "Tourville-sur-Odon",
		"lat": "49.14154",
		"lng": "-0.50128"
	},
	{
		"country": "FR",
		"ville": "Tourville-sur-Arques",
		"lat": "49.85926",
		"lng": "1.10238"
	},
	{
		"country": "FR",
		"ville": "Tourville-la-Rivière",
		"lat": "49.32782",
		"lng": "1.10551"
	},
	{
		"country": "FR",
		"ville": "Tourves",
		"lat": "43.40776",
		"lng": "5.92415"
	},
	{
		"country": "FR",
		"ville": "Tours-sur-Marne",
		"lat": "49.04873",
		"lng": "4.1206"
	},
	{
		"country": "FR",
		"ville": "Tours",
		"lat": "47.39484",
		"lng": "0.70398"
	},
	{
		"country": "FR",
		"ville": "Tourrette-Levens",
		"lat": "43.78746",
		"lng": "7.27364"
	},
	{
		"country": "FR",
		"ville": "Tourouvre",
		"lat": "48.58951",
		"lng": "0.65253"
	},
	{
		"country": "FR",
		"ville": "Tournus",
		"lat": "46.56758",
		"lng": "4.90574"
	},
	{
		"country": "FR",
		"ville": "Tournon-Saint-Martin",
		"lat": "46.73423",
		"lng": "0.95514"
	},
	{
		"country": "FR",
		"ville": "Tournon-sur-Rhône",
		"lat": "45.06667",
		"lng": "4.83333"
	},
	{
		"country": "FR",
		"ville": "Tournes",
		"lat": "49.797",
		"lng": "4.63856"
	},
	{
		"country": "FR",
		"ville": "Tournehem-sur-la-Hem",
		"lat": "50.8",
		"lng": "2.05"
	},
	{
		"country": "FR",
		"ville": "Tournefeuille",
		"lat": "43.58872",
		"lng": "1.31922"
	},
	{
		"country": "FR",
		"ville": "Tournay",
		"lat": "43.18438",
		"lng": "0.24454"
	},
	{
		"country": "FR",
		"ville": "Tournan-en-Brie",
		"lat": "48.74146",
		"lng": "2.772"
	},
	{
		"country": "FR",
		"ville": "Tourlaville",
		"lat": "49.63829",
		"lng": "-1.56639"
	},
	{
		"country": "FR",
		"ville": "Tourrettes-sur-Loup",
		"lat": "43.71667",
		"lng": "7.05"
	},
	{
		"country": "FR",
		"ville": "Tourcoing",
		"lat": "50.72391",
		"lng": "3.16117"
	},
	{
		"country": "FR",
		"ville": "Tourbes",
		"lat": "43.44615",
		"lng": "3.37852"
	},
	{
		"country": "FR",
		"ville": "Touquin",
		"lat": "48.73498",
		"lng": "3.01222"
	},
	{
		"country": "FR",
		"ville": "Touques",
		"lat": "49.34443",
		"lng": "0.10218"
	},
	{
		"country": "FR",
		"ville": "Toulouse",
		"lat": "43.60426",
		"lng": "1.44367"
	},
	{
		"country": "FR",
		"ville": "Toulouges",
		"lat": "42.66961",
		"lng": "2.83008"
	},
	{
		"country": "FR",
		"ville": "Toulon-sur-Arroux",
		"lat": "46.69345",
		"lng": "4.13869"
	},
	{
		"country": "FR",
		"ville": "Toulon-sur-Allier",
		"lat": "46.51845",
		"lng": "3.35989"
	},
	{
		"country": "FR",
		"ville": "Toulon",
		"lat": "43.12442",
		"lng": "5.92836"
	},
	{
		"country": "FR",
		"ville": "Toulenne",
		"lat": "44.55665",
		"lng": "-0.26328"
	},
	{
		"country": "FR",
		"ville": "Toulaud",
		"lat": "44.90009",
		"lng": "4.81721"
	},
	{
		"country": "FR",
		"ville": "Toul",
		"lat": "48.68333",
		"lng": "5.9"
	},
	{
		"country": "FR",
		"ville": "Toufflers",
		"lat": "50.66039",
		"lng": "3.23358"
	},
	{
		"country": "FR",
		"ville": "Toucy",
		"lat": "47.73602",
		"lng": "3.29502"
	},
	{
		"country": "FR",
		"ville": "Tôtes",
		"lat": "49.68091",
		"lng": "1.04649"
	},
	{
		"country": "FR",
		"ville": "Tossiat",
		"lat": "46.13989",
		"lng": "5.31139"
	},
	{
		"country": "FR",
		"ville": "Tosse",
		"lat": "43.68916",
		"lng": "-1.33262"
	},
	{
		"country": "FR",
		"ville": "Torreilles",
		"lat": "42.75433",
		"lng": "2.99292"
	},
	{
		"country": "FR",
		"ville": "Torigni-sur-Vire",
		"lat": "49.03702",
		"lng": "-0.98214"
	},
	{
		"country": "FR",
		"ville": "Torfou",
		"lat": "47.03682",
		"lng": "-1.11635"
	},
	{
		"country": "FR",
		"ville": "Torcy",
		"lat": "48.85",
		"lng": "2.65"
	},
	{
		"country": "FR",
		"ville": "Torcy",
		"lat": "46.76857",
		"lng": "4.45333"
	},
	{
		"country": "FR",
		"ville": "Torcé",
		"lat": "48.0612",
		"lng": "-1.26708"
	},
	{
		"country": "FR",
		"ville": "Tonquédec",
		"lat": "48.66886",
		"lng": "-3.39712"
	},
	{
		"country": "FR",
		"ville": "Tonnerre",
		"lat": "47.85628",
		"lng": "3.97369"
	},
	{
		"country": "FR",
		"ville": "Tonneins",
		"lat": "44.39206",
		"lng": "0.31241"
	},
	{
		"country": "FR",
		"ville": "Tonnay-Charente",
		"lat": "45.949",
		"lng": "-0.8935"
	},
	{
		"country": "FR",
		"ville": "Tonnay-Boutonne",
		"lat": "45.96815",
		"lng": "-0.70847"
	},
	{
		"country": "FR",
		"ville": "Tomblaine",
		"lat": "48.68333",
		"lng": "6.21312"
	},
	{
		"country": "FR",
		"ville": "Tollevast",
		"lat": "49.57437",
		"lng": "-1.62746"
	},
	{
		"country": "FR",
		"ville": "Tocane-Saint-Apre",
		"lat": "45.25404",
		"lng": "0.49682"
	},
	{
		"country": "FR",
		"ville": "Tinténiac",
		"lat": "48.3286",
		"lng": "-1.8363"
	},
	{
		"country": "FR",
		"ville": "Tinqueux",
		"lat": "49.25",
		"lng": "3.98333"
	},
	{
		"country": "FR",
		"ville": "Tinchebray",
		"lat": "48.76437",
		"lng": "-0.73333"
	},
	{
		"country": "FR",
		"ville": "Tilques",
		"lat": "50.77712",
		"lng": "2.19948"
	},
	{
		"country": "FR",
		"ville": "Tilly-sur-Seulles",
		"lat": "49.17598",
		"lng": "-0.62605"
	},
	{
		"country": "FR",
		"ville": "Tilloy-lès-Mofflaines",
		"lat": "50.27519",
		"lng": "2.81456"
	},
	{
		"country": "FR",
		"ville": "Tillières-sur-Avre",
		"lat": "48.75585",
		"lng": "1.05388"
	},
	{
		"country": "FR",
		"ville": "Tillières",
		"lat": "47.14397",
		"lng": "-1.16334"
	},
	{
		"country": "FR",
		"ville": "Tillé",
		"lat": "49.46415",
		"lng": "2.11038"
	},
	{
		"country": "FR",
		"ville": "Tigy",
		"lat": "47.79365",
		"lng": "2.19767"
	},
	{
		"country": "FR",
		"ville": "Tignieu-Jameyzieu",
		"lat": "45.73564",
		"lng": "5.18046"
	},
	{
		"country": "FR",
		"ville": "Tignes",
		"lat": "45.49604",
		"lng": "6.92463"
	},
	{
		"country": "FR",
		"ville": "Tigery",
		"lat": "48.64257",
		"lng": "2.50779"
	},
	{
		"country": "FR",
		"ville": "Tiffauges",
		"lat": "47.0108",
		"lng": "-1.10999"
	},
	{
		"country": "FR",
		"ville": "Tiercé",
		"lat": "47.61587",
		"lng": "-0.46609"
	},
	{
		"country": "FR",
		"ville": "Thyez",
		"lat": "46.08249",
		"lng": "6.53777"
	},
	{
		"country": "FR",
		"ville": "Thury-Harcourt",
		"lat": "48.98434",
		"lng": "-0.47519"
	},
	{
		"country": "FR",
		"ville": "Thurins",
		"lat": "45.68093",
		"lng": "4.63968"
	},
	{
		"country": "FR",
		"ville": "Thuré",
		"lat": "46.83221",
		"lng": "0.45797"
	},
	{
		"country": "FR",
		"ville": "Thun-Saint-Amand",
		"lat": "50.47276",
		"lng": "3.45115"
	},
	{
		"country": "FR",
		"ville": "Thumeries",
		"lat": "50.47662",
		"lng": "3.055"
	},
	{
		"country": "FR",
		"ville": "Thuir",
		"lat": "42.6329",
		"lng": "2.75471"
	},
	{
		"country": "FR",
		"ville": "Thueyts",
		"lat": "44.67828",
		"lng": "4.21916"
	},
	{
		"country": "FR",
		"ville": "Thuellin",
		"lat": "45.63964",
		"lng": "5.5084"
	},
	{
		"country": "FR",
		"ville": "Thourotte",
		"lat": "49.47591",
		"lng": "2.8821"
	},
	{
		"country": "FR",
		"ville": "Thouars",
		"lat": "46.97602",
		"lng": "-0.21507"
	},
	{
		"country": "FR",
		"ville": "Thouaré-sur-Loire",
		"lat": "47.26893",
		"lng": "-1.43834"
	},
	{
		"country": "FR",
		"ville": "Thouarcé",
		"lat": "47.26734",
		"lng": "-0.50186"
	},
	{
		"country": "FR",
		"ville": "Thorigny-sur-Oreuse",
		"lat": "48.29297",
		"lng": "3.40128"
	},
	{
		"country": "FR",
		"ville": "Thorigny-sur-Marne",
		"lat": "48.88689",
		"lng": "2.71806"
	},
	{
		"country": "FR",
		"ville": "Thorigné-sur-Dué",
		"lat": "48.0392",
		"lng": "0.53554"
	},
	{
		"country": "FR",
		"ville": "Thorigné",
		"lat": "46.29149",
		"lng": "-0.25122"
	},
	{
		"country": "FR",
		"ville": "Thorens-Glières",
		"lat": "45.99475",
		"lng": "6.24581"
	},
	{
		"country": "FR",
		"ville": "Thonon-les-Bains",
		"lat": "46.36667",
		"lng": "6.48333"
	},
	{
		"country": "FR",
		"ville": "Thônes",
		"lat": "45.88123",
		"lng": "6.32572"
	},
	{
		"country": "FR",
		"ville": "Thomery",
		"lat": "48.40723",
		"lng": "2.78852"
	},
	{
		"country": "FR",
		"ville": "Thoissey",
		"lat": "46.17405",
		"lng": "4.80331"
	},
	{
		"country": "FR",
		"ville": "Thoiry",
		"lat": "48.86715",
		"lng": "1.7976"
	},
	{
		"country": "FR",
		"ville": "Thoiry",
		"lat": "46.23762",
		"lng": "5.98111"
	},
	{
		"country": "FR",
		"ville": "Thizy-les-Bourgs",
		"lat": "46.02995",
		"lng": "4.31299"
	},
	{
		"country": "FR",
		"ville": "Thiviers",
		"lat": "45.41542",
		"lng": "0.91963"
	},
	{
		"country": "FR",
		"ville": "Thiverval-Grignon",
		"lat": "48.84964",
		"lng": "1.91729"
	},
	{
		"country": "FR",
		"ville": "Thiverny",
		"lat": "49.2518",
		"lng": "2.43609"
	},
	{
		"country": "FR",
		"ville": "Thise",
		"lat": "47.28486",
		"lng": "6.08127"
	},
	{
		"country": "FR",
		"ville": "Thiron Gardais",
		"lat": "48.31667",
		"lng": "0.98333"
	},
	{
		"country": "FR",
		"ville": "Thionville",
		"lat": "49.36667",
		"lng": "6.16667"
	},
	{
		"country": "FR",
		"ville": "Thilouze",
		"lat": "47.22415",
		"lng": "0.57963"
	},
	{
		"country": "FR",
		"ville": "Thilay",
		"lat": "49.87345",
		"lng": "4.80772"
	},
	{
		"country": "FR",
		"ville": "Thil",
		"lat": "49.47464",
		"lng": "5.90789"
	},
	{
		"country": "FR",
		"ville": "Thil",
		"lat": "45.81416",
		"lng": "5.0219"
	},
	{
		"country": "FR",
		"ville": "Thierville-sur-Meuse",
		"lat": "49.1705",
		"lng": "5.35266"
	},
	{
		"country": "FR",
		"ville": "Thiers-sur-Thève",
		"lat": "49.15252",
		"lng": "2.57051"
	},
	{
		"country": "FR",
		"ville": "Thiers",
		"lat": "45.85",
		"lng": "3.56667"
	},
	{
		"country": "FR",
		"ville": "Thiberville",
		"lat": "49.13768",
		"lng": "0.45502"
	},
	{
		"country": "FR",
		"ville": "Thiant",
		"lat": "50.3048",
		"lng": "3.44796"
	},
	{
		"country": "FR",
		"ville": "Thiais",
		"lat": "48.76496",
		"lng": "2.3961"
	},
	{
		"country": "FR",
		"ville": "Thézan-lès-Béziers",
		"lat": "43.41667",
		"lng": "3.16667"
	},
	{
		"country": "FR",
		"ville": "Théza",
		"lat": "42.63797",
		"lng": "2.95108"
	},
	{
		"country": "FR",
		"ville": "Theys",
		"lat": "45.30136",
		"lng": "5.99534"
	},
	{
		"country": "FR",
		"ville": "Thésée",
		"lat": "47.32345",
		"lng": "1.30882"
	},
	{
		"country": "FR",
		"ville": "Thérouanne",
		"lat": "50.63695",
		"lng": "2.25838"
	},
	{
		"country": "FR",
		"ville": "Théoule-sur-Mer",
		"lat": "43.5078",
		"lng": "6.9408"
	},
	{
		"country": "FR",
		"ville": "Thenon",
		"lat": "45.13897",
		"lng": "1.07211"
	},
	{
		"country": "FR",
		"ville": "Thénezay",
		"lat": "46.71879",
		"lng": "-0.02883"
	},
	{
		"country": "FR",
		"ville": "Thénac",
		"lat": "45.66705",
		"lng": "-0.65345"
	},
	{
		"country": "FR",
		"ville": "Thélus",
		"lat": "50.35441",
		"lng": "2.80146"
	},
	{
		"country": "FR",
		"ville": "Theizé",
		"lat": "45.94028",
		"lng": "4.61634"
	},
	{
		"country": "FR",
		"ville": "Theix",
		"lat": "47.62916",
		"lng": "-2.65186"
	},
	{
		"country": "FR",
		"ville": "Theillay",
		"lat": "47.31429",
		"lng": "2.04028"
	},
	{
		"country": "FR",
		"ville": "Théding",
		"lat": "49.12847",
		"lng": "6.8922"
	},
	{
		"country": "FR",
		"ville": "Thaon-les-Vosges",
		"lat": "48.25",
		"lng": "6.41667"
	},
	{
		"country": "FR",
		"ville": "Thaon",
		"lat": "49.25796",
		"lng": "-0.45605"
	},
	{
		"country": "FR",
		"ville": "Thann",
		"lat": "47.81667",
		"lng": "7.08333"
	},
	{
		"country": "FR",
		"ville": "Thairé",
		"lat": "46.07341",
		"lng": "-1.0023"
	},
	{
		"country": "FR",
		"ville": "Teyran",
		"lat": "43.68528",
		"lng": "3.92889"
	},
	{
		"country": "FR",
		"ville": "Teting-sur-Nied",
		"lat": "49.05704",
		"lng": "6.66294"
	},
	{
		"country": "FR",
		"ville": "Téteghem",
		"lat": "51.01859",
		"lng": "2.44454"
	},
	{
		"country": "FR",
		"ville": "Tessy-sur-Vire",
		"lat": "48.97381",
		"lng": "-1.06087"
	},
	{
		"country": "FR",
		"ville": "Tessé-la-Madeleine",
		"lat": "48.54963",
		"lng": "-0.42521"
	},
	{
		"country": "FR",
		"ville": "Terville",
		"lat": "49.34668",
		"lng": "6.13346"
	},
	{
		"country": "FR",
		"ville": "Terrasson-Lavilledieu",
		"lat": "45.13011",
		"lng": "1.30136"
	},
	{
		"country": "FR",
		"ville": "Ternay",
		"lat": "45.60835",
		"lng": "4.81024"
	},
	{
		"country": "FR",
		"ville": "Tergnier",
		"lat": "49.65607",
		"lng": "3.30107"
	},
	{
		"country": "FR",
		"ville": "Tercis-les-Bains",
		"lat": "43.67048",
		"lng": "-1.10738"
	},
	{
		"country": "FR",
		"ville": "Tercé",
		"lat": "46.51667",
		"lng": "0.56386"
	},
	{
		"country": "FR",
		"ville": "Tenteling",
		"lat": "49.12544",
		"lng": "6.93751"
	},
	{
		"country": "FR",
		"ville": "Tennie",
		"lat": "48.10769",
		"lng": "-0.07626"
	},
	{
		"country": "FR",
		"ville": "Tende",
		"lat": "44.08571",
		"lng": "7.5934"
	},
	{
		"country": "FR",
		"ville": "Tencin",
		"lat": "45.30953",
		"lng": "5.95818"
	},
	{
		"country": "FR",
		"ville": "Tence",
		"lat": "45.11503",
		"lng": "4.29166"
	},
	{
		"country": "FR",
		"ville": "Tenay",
		"lat": "45.919",
		"lng": "5.51041"
	},
	{
		"country": "FR",
		"ville": "Templeuve",
		"lat": "50.52336",
		"lng": "3.17809"
	},
	{
		"country": "FR",
		"ville": "Templemars",
		"lat": "50.57387",
		"lng": "3.05437"
	},
	{
		"country": "FR",
		"ville": "Teloché",
		"lat": "47.88819",
		"lng": "0.27086"
	},
	{
		"country": "FR",
		"ville": "Telgruc-sur-Mer",
		"lat": "48.23333",
		"lng": "-4.35"
	},
	{
		"country": "FR",
		"ville": "Teillé",
		"lat": "47.4617",
		"lng": "-1.2781"
	},
	{
		"country": "FR",
		"ville": "Tavers",
		"lat": "47.75921",
		"lng": "1.61267"
	},
	{
		"country": "FR",
		"ville": "Taverny",
		"lat": "49.02542",
		"lng": "2.21691"
	},
	{
		"country": "FR",
		"ville": "Tavel",
		"lat": "44.0127",
		"lng": "4.69835"
	},
	{
		"country": "FR",
		"ville": "Tavaux",
		"lat": "47.03376",
		"lng": "5.405"
	},
	{
		"country": "FR",
		"ville": "Tauxigny",
		"lat": "47.21337",
		"lng": "0.83479"
	},
	{
		"country": "FR",
		"ville": "Tauriac",
		"lat": "45.04915",
		"lng": "-0.50048"
	},
	{
		"country": "FR",
		"ville": "Taupont",
		"lat": "47.95961",
		"lng": "-2.43933"
	},
	{
		"country": "FR",
		"ville": "Taulignan",
		"lat": "44.44425",
		"lng": "4.97971"
	},
	{
		"country": "FR",
		"ville": "Taulé",
		"lat": "48.6",
		"lng": "-3.9"
	},
	{
		"country": "FR",
		"ville": "Tatinghem",
		"lat": "50.74317",
		"lng": "2.20724"
	},
	{
		"country": "FR",
		"ville": "Tassin-la-Demi-Lune",
		"lat": "45.75499",
		"lng": "4.78812"
	},
	{
		"country": "FR",
		"ville": "Tartas",
		"lat": "43.83248",
		"lng": "-0.80895"
	},
	{
		"country": "FR",
		"ville": "Tarnos",
		"lat": "43.5417",
		"lng": "-1.46281"
	},
	{
		"country": "FR",
		"ville": "Targon",
		"lat": "44.73495",
		"lng": "-0.26351"
	},
	{
		"country": "FR",
		"ville": "Tarbes",
		"lat": "43.23333",
		"lng": "0.08333"
	},
	{
		"country": "FR",
		"ville": "Tarascon-sur-Ariège",
		"lat": "42.84545",
		"lng": "1.60332"
	},
	{
		"country": "FR",
		"ville": "Tarascon",
		"lat": "43.80583",
		"lng": "4.66028"
	},
	{
		"country": "FR",
		"ville": "Tarare",
		"lat": "45.89761",
		"lng": "4.43272"
	},
	{
		"country": "FR",
		"ville": "Taradeau",
		"lat": "43.45428",
		"lng": "6.42776"
	},
	{
		"country": "FR",
		"ville": "Taponnat-Fleurignac",
		"lat": "45.77868",
		"lng": "0.40932"
	},
	{
		"country": "FR",
		"ville": "Tanneron",
		"lat": "43.59083",
		"lng": "6.87495"
	},
	{
		"country": "FR",
		"ville": "Tanlay",
		"lat": "47.84488",
		"lng": "4.08504"
	},
	{
		"country": "FR",
		"ville": "Taninges",
		"lat": "46.10883",
		"lng": "6.59231"
	},
	{
		"country": "FR",
		"ville": "Tancarville",
		"lat": "49.4855",
		"lng": "0.45765"
	},
	{
		"country": "FR",
		"ville": "Taluyers",
		"lat": "45.63991",
		"lng": "4.72194"
	},
	{
		"country": "FR",
		"ville": "Talmas",
		"lat": "50.03049",
		"lng": "2.32554"
	},
	{
		"country": "FR",
		"ville": "Talloires",
		"lat": "45.84036",
		"lng": "6.21416"
	},
	{
		"country": "FR",
		"ville": "Tallende",
		"lat": "45.67126",
		"lng": "3.12799"
	},
	{
		"country": "FR",
		"ville": "Tallard",
		"lat": "44.46128",
		"lng": "6.05504"
	},
	{
		"country": "FR",
		"ville": "Talensac",
		"lat": "48.10847",
		"lng": "-1.92829"
	},
	{
		"country": "FR",
		"ville": "Talence",
		"lat": "44.80477",
		"lng": "-0.59543"
	},
	{
		"country": "FR",
		"ville": "Talant",
		"lat": "47.33693",
		"lng": "5.00888"
	},
	{
		"country": "FR",
		"ville": "Talange",
		"lat": "49.23577",
		"lng": "6.17167"
	},
	{
		"country": "FR",
		"ville": "Taissy",
		"lat": "49.21509",
		"lng": "4.09406"
	},
	{
		"country": "FR",
		"ville": "Taintrux",
		"lat": "48.24944",
		"lng": "6.89963"
	},
	{
		"country": "FR",
		"ville": "Tain-l'Hermitage",
		"lat": "45.07217",
		"lng": "4.83708"
	},
	{
		"country": "FR",
		"ville": "Taillecourt",
		"lat": "47.49521",
		"lng": "6.85442"
	},
	{
		"country": "FR",
		"ville": "Taillades",
		"lat": "43.83592",
		"lng": "5.09216"
	},
	{
		"country": "FR",
		"ville": "Taden",
		"lat": "48.4753",
		"lng": "-2.01946"
	},
	{
		"country": "FR",
		"ville": "Tacoignières",
		"lat": "48.83619",
		"lng": "1.67501"
	},
	{
		"country": "FR",
		"ville": "Tabanac",
		"lat": "44.72059",
		"lng": "-0.40513"
	},
	{
		"country": "FR",
		"ville": "Suze-la-Rousse",
		"lat": "44.28788",
		"lng": "4.84346"
	},
	{
		"country": "FR",
		"ville": "Sussargues",
		"lat": "43.7125",
		"lng": "4.0031"
	},
	{
		"country": "FR",
		"ville": "Surzur",
		"lat": "47.5785",
		"lng": "-2.62892"
	},
	{
		"country": "FR",
		"ville": "Sury-le-Comtal",
		"lat": "45.5342",
		"lng": "4.18642"
	},
	{
		"country": "FR",
		"ville": "Survilliers",
		"lat": "49.09712",
		"lng": "2.54449"
	},
	{
		"country": "FR",
		"ville": "Surtainville",
		"lat": "49.45977",
		"lng": "-1.81298"
	},
	{
		"country": "FR",
		"ville": "Surgères",
		"lat": "46.1082",
		"lng": "-0.75148"
	},
	{
		"country": "FR",
		"ville": "Suresnes",
		"lat": "48.87143",
		"lng": "2.22929"
	},
	{
		"country": "FR",
		"ville": "Surbourg",
		"lat": "48.91009",
		"lng": "7.84716"
	},
	{
		"country": "FR",
		"ville": "Sundhouse",
		"lat": "48.2511",
		"lng": "7.60427"
	},
	{
		"country": "FR",
		"ville": "Sundhoffen",
		"lat": "48.04263",
		"lng": "7.4132"
	},
	{
		"country": "FR",
		"ville": "Sumène",
		"lat": "43.98057",
		"lng": "3.71575"
	},
	{
		"country": "FR",
		"ville": "Sulniac",
		"lat": "47.67375",
		"lng": "-2.57136"
	},
	{
		"country": "FR",
		"ville": "Sully-sur-Loire",
		"lat": "47.76372",
		"lng": "2.37238"
	},
	{
		"country": "FR",
		"ville": "Suippes",
		"lat": "49.12886",
		"lng": "4.53446"
	},
	{
		"country": "FR",
		"ville": "Suèvres",
		"lat": "47.66655",
		"lng": "1.46153"
	},
	{
		"country": "FR",
		"ville": "Sucy-en-Brie",
		"lat": "48.76872",
		"lng": "2.53474"
	},
	{
		"country": "FR",
		"ville": "Sucé-sur-Erdre",
		"lat": "47.33333",
		"lng": "-1.53333"
	},
	{
		"country": "FR",
		"ville": "Strasbourg",
		"lat": "48.58392",
		"lng": "7.74553"
	},
	{
		"country": "FR",
		"ville": "Stotzheim",
		"lat": "48.37868",
		"lng": "7.49235"
	},
	{
		"country": "FR",
		"ville": "Stosswihr",
		"lat": "48.05108",
		"lng": "7.11001"
	},
	{
		"country": "FR",
		"ville": "Stiring-Wendel",
		"lat": "49.20198",
		"lng": "6.9317"
	},
	{
		"country": "FR",
		"ville": "Still",
		"lat": "48.54982",
		"lng": "7.40444"
	},
	{
		"country": "FR",
		"ville": "Stenay",
		"lat": "49.49489",
		"lng": "5.18606"
	},
	{
		"country": "FR",
		"ville": "Steinbourg",
		"lat": "48.77028",
		"lng": "7.41354"
	},
	{
		"country": "FR",
		"ville": "Steinbach",
		"lat": "47.8214",
		"lng": "7.15279"
	},
	{
		"country": "FR",
		"ville": "Steenwerck",
		"lat": "50.70199",
		"lng": "2.77829"
	},
	{
		"country": "FR",
		"ville": "Steenvoorde",
		"lat": "50.81046",
		"lng": "2.58244"
	},
	{
		"country": "FR",
		"ville": "Steene",
		"lat": "50.95228",
		"lng": "2.36813"
	},
	{
		"country": "FR",
		"ville": "Steenbecque",
		"lat": "50.67421",
		"lng": "2.48442"
	},
	{
		"country": "FR",
		"ville": "Stains",
		"lat": "48.95",
		"lng": "2.38333"
	},
	{
		"country": "FR",
		"ville": "Staffelfelden",
		"lat": "47.82647",
		"lng": "7.25235"
	},
	{
		"country": "FR",
		"ville": "Spycker",
		"lat": "50.96915",
		"lng": "2.32184"
	},
	{
		"country": "FR",
		"ville": "Spicheren",
		"lat": "49.19252",
		"lng": "6.96611"
	},
	{
		"country": "FR",
		"ville": "Spézet",
		"lat": "48.2",
		"lng": "-3.71667"
	},
	{
		"country": "FR",
		"ville": "Spéracèdes",
		"lat": "43.64364",
		"lng": "6.85279"
	},
	{
		"country": "FR",
		"ville": "Spay",
		"lat": "47.92384",
		"lng": "0.15258"
	},
	{
		"country": "FR",
		"ville": "Soyons",
		"lat": "44.88613",
		"lng": "4.85059"
	},
	{
		"country": "FR",
		"ville": "Soyaux",
		"lat": "45.65",
		"lng": "0.2"
	},
	{
		"country": "FR",
		"ville": "Souvigny",
		"lat": "46.53352",
		"lng": "3.19247"
	},
	{
		"country": "FR",
		"ville": "Soustons",
		"lat": "43.75328",
		"lng": "-1.3278"
	},
	{
		"country": "FR",
		"ville": "Soussans",
		"lat": "45.05619",
		"lng": "-0.69916"
	},
	{
		"country": "FR",
		"ville": "Sourzac",
		"lat": "45.04978",
		"lng": "0.39598"
	},
	{
		"country": "FR",
		"ville": "Sours",
		"lat": "48.41043",
		"lng": "1.59889"
	},
	{
		"country": "FR",
		"ville": "Sourdun",
		"lat": "48.53688",
		"lng": "3.352"
	},
	{
		"country": "FR",
		"ville": "Sourdeval",
		"lat": "48.72312",
		"lng": "-0.92223"
	},
	{
		"country": "FR",
		"ville": "Sourcieux-les-Mines",
		"lat": "45.80566",
		"lng": "4.62358"
	},
	{
		"country": "FR",
		"ville": "Souraïde",
		"lat": "43.34154",
		"lng": "-1.47559"
	},
	{
		"country": "FR",
		"ville": "Souprosse",
		"lat": "43.78869",
		"lng": "-0.71035"
	},
	{
		"country": "FR",
		"ville": "Souppes-sur-Loing",
		"lat": "48.18297",
		"lng": "2.73521"
	},
	{
		"country": "FR",
		"ville": "Soumoulou",
		"lat": "43.26667",
		"lng": "-0.18333"
	},
	{
		"country": "FR",
		"ville": "Soultz-sous-Forêts",
		"lat": "48.93693",
		"lng": "7.8811"
	},
	{
		"country": "FR",
		"ville": "Soultzmatt",
		"lat": "47.96188",
		"lng": "7.23759"
	},
	{
		"country": "FR",
		"ville": "Soultz-Haut-Rhin",
		"lat": "47.8874",
		"lng": "7.23042"
	},
	{
		"country": "FR",
		"ville": "Soultzeren",
		"lat": "48.06213",
		"lng": "7.10214"
	},
	{
		"country": "FR",
		"ville": "Soullans",
		"lat": "46.79624",
		"lng": "-1.90106"
	},
	{
		"country": "FR",
		"ville": "Souligné-sous-Ballon",
		"lat": "48.13758",
		"lng": "0.23572"
	},
	{
		"country": "FR",
		"ville": "Soulgé-sur-Ouette",
		"lat": "48.06667",
		"lng": "-0.56667"
	},
	{
		"country": "FR",
		"ville": "Soulaire-et-Bourg",
		"lat": "47.57896",
		"lng": "-0.55232"
	},
	{
		"country": "FR",
		"ville": "Soulaines-sur-Aubance",
		"lat": "47.36381",
		"lng": "-0.52265"
	},
	{
		"country": "FR",
		"ville": "Soulac-sur-Mer",
		"lat": "45.51068",
		"lng": "-1.12524"
	},
	{
		"country": "FR",
		"ville": "Souillac",
		"lat": "44.8972",
		"lng": "1.47224"
	},
	{
		"country": "FR",
		"ville": "Soufflenheim",
		"lat": "48.83026",
		"lng": "7.96268"
	},
	{
		"country": "FR",
		"ville": "Souffelweyersheim",
		"lat": "48.6354",
		"lng": "7.74141"
	},
	{
		"country": "FR",
		"ville": "Souesmes",
		"lat": "47.45638",
		"lng": "2.17495"
	},
	{
		"country": "FR",
		"ville": "Soues",
		"lat": "43.20736",
		"lng": "0.09874"
	},
	{
		"country": "FR",
		"ville": "Soudan",
		"lat": "47.73777",
		"lng": "-1.30566"
	},
	{
		"country": "FR",
		"ville": "Soucy",
		"lat": "48.24956",
		"lng": "3.32385"
	},
	{
		"country": "FR",
		"ville": "Soucieu-en-Jarrest",
		"lat": "45.68017",
		"lng": "4.70334"
	},
	{
		"country": "FR",
		"ville": "Soucht",
		"lat": "48.95902",
		"lng": "7.33434"
	},
	{
		"country": "FR",
		"ville": "Souchez",
		"lat": "50.39291",
		"lng": "2.73984"
	},
	{
		"country": "FR",
		"ville": "Soucelles",
		"lat": "47.56848",
		"lng": "-0.41819"
	},
	{
		"country": "FR",
		"ville": "Soubise",
		"lat": "45.92395",
		"lng": "-1.00938"
	},
	{
		"country": "FR",
		"ville": "Soual",
		"lat": "43.5553",
		"lng": "2.11679"
	},
	{
		"country": "FR",
		"ville": "Sotteville-lès-Rouen",
		"lat": "49.40972",
		"lng": "1.09005"
	},
	{
		"country": "FR",
		"ville": "Sottevast",
		"lat": "49.52374",
		"lng": "-1.59169"
	},
	{
		"country": "FR",
		"ville": "Sospel",
		"lat": "43.87847",
		"lng": "7.4484"
	},
	{
		"country": "FR",
		"ville": "Sornay",
		"lat": "46.63023",
		"lng": "5.17999"
	},
	{
		"country": "FR",
		"ville": "Sormiou",
		"lat": "43.20959",
		"lng": "5.41872"
	},
	{
		"country": "FR",
		"ville": "Sorigny",
		"lat": "47.24329",
		"lng": "0.6952"
	},
	{
		"country": "FR",
		"ville": "Sorgues",
		"lat": "44.01023",
		"lng": "4.87381"
	},
	{
		"country": "FR",
		"ville": "Sorges",
		"lat": "45.30563",
		"lng": "0.87328"
	},
	{
		"country": "FR",
		"ville": "Sorèze",
		"lat": "43.45241",
		"lng": "2.06799"
	},
	{
		"country": "FR",
		"ville": "Sorel-Moussel",
		"lat": "48.83391",
		"lng": "1.36699"
	},
	{
		"country": "FR",
		"ville": "Sorède",
		"lat": "42.53069",
		"lng": "2.95708"
	},
	{
		"country": "FR",
		"ville": "Sorbiers",
		"lat": "45.48815",
		"lng": "4.44933"
	},
	{
		"country": "FR",
		"ville": "Soorts-Hossegor",
		"lat": "43.6649",
		"lng": "-1.39717"
	},
	{
		"country": "FR",
		"ville": "Sonzay",
		"lat": "47.52687",
		"lng": "0.46203"
	},
	{
		"country": "FR",
		"ville": "Sonnaz",
		"lat": "45.6216",
		"lng": "5.9184"
	},
	{
		"country": "FR",
		"ville": "Sonnay",
		"lat": "45.3557",
		"lng": "4.90637"
	},
	{
		"country": "FR",
		"ville": "Songeons",
		"lat": "49.54916",
		"lng": "1.85361"
	},
	{
		"country": "FR",
		"ville": "Sonchamp",
		"lat": "48.5759",
		"lng": "1.87753"
	},
	{
		"country": "FR",
		"ville": "Sommières",
		"lat": "43.78534",
		"lng": "4.08973"
	},
	{
		"country": "FR",
		"ville": "Somain",
		"lat": "50.35961",
		"lng": "3.28108"
	},
	{
		"country": "FR",
		"ville": "Solre-le-Château",
		"lat": "50.17432",
		"lng": "4.08898"
	},
	{
		"country": "FR",
		"ville": "Solliès-Ville",
		"lat": "43.18228",
		"lng": "6.03858"
	},
	{
		"country": "FR",
		"ville": "Solliès-Toucas",
		"lat": "43.20821",
		"lng": "6.02496"
	},
	{
		"country": "FR",
		"ville": "Solliès-Pont",
		"lat": "43.18978",
		"lng": "6.04321"
	},
	{
		"country": "FR",
		"ville": "Solignac-sur-Loire",
		"lat": "44.96819",
		"lng": "3.88529"
	},
	{
		"country": "FR",
		"ville": "Solignac",
		"lat": "45.75528",
		"lng": "1.27563"
	},
	{
		"country": "FR",
		"ville": "Soliers",
		"lat": "49.1344",
		"lng": "-0.29613"
	},
	{
		"country": "FR",
		"ville": "Solgne",
		"lat": "48.96543",
		"lng": "6.29429"
	},
	{
		"country": "FR",
		"ville": "Solesmes",
		"lat": "50.18468",
		"lng": "3.49799"
	},
	{
		"country": "FR",
		"ville": "Solesmes",
		"lat": "47.85009",
		"lng": "-0.29806"
	},
	{
		"country": "FR",
		"ville": "Solers",
		"lat": "48.65919",
		"lng": "2.71617"
	},
	{
		"country": "FR",
		"ville": "Solaize",
		"lat": "45.63333",
		"lng": "4.85"
	},
	{
		"country": "FR",
		"ville": "Soisy-sur-Seine",
		"lat": "48.64875",
		"lng": "2.45223"
	},
	{
		"country": "FR",
		"ville": "Soisy-sur-École",
		"lat": "48.47637",
		"lng": "2.49301"
	},
	{
		"country": "FR",
		"ville": "Soisy-sous-Montmorency",
		"lat": "48.98813",
		"lng": "2.30156"
	},
	{
		"country": "FR",
		"ville": "Soissons",
		"lat": "49.38167",
		"lng": "3.32361"
	},
	{
		"country": "FR",
		"ville": "Soings-en-Sologne",
		"lat": "47.41289",
		"lng": "1.52452"
	},
	{
		"country": "FR",
		"ville": "Soignolles-en-Brie",
		"lat": "48.6535",
		"lng": "2.69968"
	},
	{
		"country": "FR",
		"ville": "Socx",
		"lat": "50.93571",
		"lng": "2.42422"
	},
	{
		"country": "FR",
		"ville": "Sochaux",
		"lat": "47.50808",
		"lng": "6.82748"
	},
	{
		"country": "FR",
		"ville": "Smarves",
		"lat": "46.51078",
		"lng": "0.3498"
	},
	{
		"country": "FR",
		"ville": "Sizun",
		"lat": "48.4",
		"lng": "-4.08333"
	},
	{
		"country": "FR",
		"ville": "Sixt-sur-Aff",
		"lat": "47.77648",
		"lng": "-2.07867"
	},
	{
		"country": "FR",
		"ville": "Six-Fours-les-Plages",
		"lat": "43.1",
		"lng": "5.85"
	},
	{
		"country": "FR",
		"ville": "Sisteron",
		"lat": "44.18758",
		"lng": "5.94623"
	},
	{
		"country": "FR",
		"ville": "Sissonne",
		"lat": "49.57107",
		"lng": "3.89369"
	},
	{
		"country": "FR",
		"ville": "Sisco",
		"lat": "42.8",
		"lng": "9.43333"
	},
	{
		"country": "FR",
		"ville": "Sireuil",
		"lat": "45.61667",
		"lng": "0.01667"
	},
	{
		"country": "FR",
		"ville": "Sion-les-Mines",
		"lat": "47.73476",
		"lng": "-1.5919"
	},
	{
		"country": "FR",
		"ville": "Sin-le-Noble",
		"lat": "50.36159",
		"lng": "3.13113"
	},
	{
		"country": "FR",
		"ville": "Sinceny",
		"lat": "49.59619",
		"lng": "3.24679"
	},
	{
		"country": "FR",
		"ville": "Simiane-Collongue",
		"lat": "43.43067",
		"lng": "5.43454"
	},
	{
		"country": "FR",
		"ville": "Simandres",
		"lat": "45.61979",
		"lng": "4.87087"
	},
	{
		"country": "FR",
		"ville": "Simandre",
		"lat": "46.62364",
		"lng": "4.98777"
	},
	{
		"country": "FR",
		"ville": "Silly-le-Long",
		"lat": "49.10749",
		"lng": "2.79226"
	},
	{
		"country": "FR",
		"ville": "Sillingy",
		"lat": "45.94542",
		"lng": "6.03392"
	},
	{
		"country": "FR",
		"ville": "Sillery",
		"lat": "49.19822",
		"lng": "4.13244"
	},
	{
		"country": "FR",
		"ville": "Sillé-le-Guillaume",
		"lat": "48.18266",
		"lng": "-0.12642"
	},
	{
		"country": "FR",
		"ville": "Sillans",
		"lat": "45.34068",
		"lng": "5.38859"
	},
	{
		"country": "FR",
		"ville": "Sigolsheim",
		"lat": "48.13475",
		"lng": "7.30137"
	},
	{
		"country": "FR",
		"ville": "Signy-le-Petit",
		"lat": "49.90277",
		"lng": "4.2799"
	},
	{
		"country": "FR",
		"ville": "Signes",
		"lat": "43.2901",
		"lng": "5.86232"
	},
	{
		"country": "FR",
		"ville": "Sigean",
		"lat": "43.02777",
		"lng": "2.97916"
	},
	{
		"country": "FR",
		"ville": "Sierentz",
		"lat": "47.65852",
		"lng": "7.45426"
	},
	{
		"country": "FR",
		"ville": "Sierck-les-Bains",
		"lat": "49.43942",
		"lng": "6.35816"
	},
	{
		"country": "FR",
		"ville": "Sibiril",
		"lat": "48.66667",
		"lng": "-4.06667"
	},
	{
		"country": "FR",
		"ville": "Sézanne",
		"lat": "48.72047",
		"lng": "3.72339"
	},
	{
		"country": "FR",
		"ville": "Seyssuel",
		"lat": "45.56006",
		"lng": "4.8532"
	},
	{
		"country": "FR",
		"ville": "Seyssins",
		"lat": "45.15513",
		"lng": "5.67921"
	},
	{
		"country": "FR",
		"ville": "Seyssinet-Pariset",
		"lat": "45.17675",
		"lng": "5.69387"
	},
	{
		"country": "FR",
		"ville": "Seysses",
		"lat": "43.49801",
		"lng": "1.31081"
	},
	{
		"country": "FR",
		"ville": "Seynod",
		"lat": "45.88549",
		"lng": "6.08831"
	},
	{
		"country": "FR",
		"ville": "Seyne-les-Alpes",
		"lat": "44.35042",
		"lng": "6.35634"
	},
	{
		"country": "FR",
		"ville": "Sévrier",
		"lat": "45.86415",
		"lng": "6.14026"
	},
	{
		"country": "FR",
		"ville": "Sevrey",
		"lat": "46.73825",
		"lng": "4.8403"
	},
	{
		"country": "FR",
		"ville": "Sèvres-Anxaumont",
		"lat": "46.57036",
		"lng": "0.46603"
	},
	{
		"country": "FR",
		"ville": "Sèvres",
		"lat": "48.82292",
		"lng": "2.21757"
	},
	{
		"country": "FR",
		"ville": "Sevran",
		"lat": "48.94472",
		"lng": "2.52746"
	},
	{
		"country": "FR",
		"ville": "Sévignac",
		"lat": "48.33297",
		"lng": "-2.33915"
	},
	{
		"country": "FR",
		"ville": "Sévérac-le-Château",
		"lat": "44.32429",
		"lng": "3.05929"
	},
	{
		"country": "FR",
		"ville": "Sévérac",
		"lat": "47.55008",
		"lng": "-2.07496"
	},
	{
		"country": "FR",
		"ville": "Seurre",
		"lat": "46.99923",
		"lng": "5.15138"
	},
	{
		"country": "FR",
		"ville": "Seugy",
		"lat": "49.12182",
		"lng": "2.39377"
	},
	{
		"country": "FR",
		"ville": "Sète",
		"lat": "43.4028",
		"lng": "3.69278"
	},
	{
		"country": "FR",
		"ville": "Sessenheim",
		"lat": "48.79652",
		"lng": "7.98719"
	},